NAME,TYPE,LOCATION,TAG,LAT,LON
우성헬스,헬스/휘트니스,서울특별시 동대문구 신설동 왕산로,스트레스 해소; 감정 자극,37.5758417,127.0236765
중앙24시헬스,헬스/휘트니스,서울특별시 서대문구 북아현동 북아현로,스트레스 해소; 감정 자극,37.563293,126.9547724
헬스토피아,헬스/휘트니스,서울특별시 구로구 오류동 오류로8길,스트레스 해소; 감정 자극,37.4921777,126.8433946
휘트니스센터,헬스/휘트니스,서울특별시 중구 충무로1가 명동8나길,스트레스 해소; 감정 자극,37.5612962,126.9832412
동방헬스,헬스/휘트니스,서울특별시 성북구 장위동 장위로,스트레스 해소; 감정 자극,37.6137685,127.0517249
에너지플러스,헬스/휘트니스,서울특별시 강남구 청담동 선릉로,스트레스 해소; 감정 자극,37.5231877,127.0391653
진여성전용휘트니스,헬스/휘트니스,서울특별시 마포구 합정동 월드컵로,스트레스 해소; 감정 자극,37.5494977,126.9132614
신사헬스클럽,헬스/휘트니스,서울특별시 강남구 신사동 강남대로152길,스트레스 해소; 감정 자극,37.5187492,127.0241275
그린헬스,헬스/휘트니스,서울특별시 중랑구 중화동 중랑역로,스트레스 해소; 감정 자극,37.5943804,127.0771237
우진헬스클럽,헬스/휘트니스,서울특별시 종로구 종로6가 종로41길,스트레스 해소; 감정 자극,37.572777,127.0066709
한남헬스,헬스/휘트니스,서울특별시 용산구 한남동 대사관로31길,스트레스 해소; 감정 자극,37.5342019,127.0048434
동산헬스,헬스/휘트니스,서울특별시 동대문구 전농동 전농로,스트레스 해소; 감정 자극,37.5767643,127.0576969
헬스클럽,헬스/휘트니스,서울특별시 강남구 논현동 강남대로122길,스트레스 해소; 감정 자극,37.5090303,127.025855
무지개헬스클럽,헬스/휘트니스,서울특별시 마포구 성산동 월드컵북로,스트레스 해소; 감정 자극,37.5690037,126.9045248
용마헬스클럽,헬스/휘트니스,서울특별시 중랑구 면목동 면목로,스트레스 해소; 감정 자극,37.5816841,127.0886238
펌프헬스클럽,헬스/휘트니스,서울특별시 양천구 목동 목동중앙로,스트레스 해소; 감정 자극,37.5357127,126.8704635
챠밍헬스클럽,헬스/휘트니스,서울특별시 성북구 동선동1가 동소문로,스트레스 해소; 감정 자극,37.5935458,127.017058
종로헬스,헬스/휘트니스,서울특별시 종로구 관철동 삼일대로17길,스트레스 해소; 감정 자극,37.5691738,126.9860324
고려헬스,헬스/휘트니스,서울특별시 동대문구 제기동 안암로24길,스트레스 해소; 감정 자극,37.588269,127.0359904
유진헬스크럽,헬스/휘트니스,서울특별시 동작구 대방동 등용로,스트레스 해소; 감정 자극,37.505551,126.9342135
그랜드헬스클럽,헬스/휘트니스,서울특별시 용산구 보광동 장문로,스트레스 해소; 감정 자극,37.5267047,127.002788
스타헬스,헬스/휘트니스,서울특별시 동대문구 전농동 전농로,스트레스 해소; 감정 자극,37.5767643,127.0576969
한양남여헬스,헬스/휘트니스,서울특별시 동대문구 청량리동 홍릉로,스트레스 해소; 감정 자극,37.5834824,127.0441365
대도헬스클럽,헬스/휘트니스,서울특별시 중랑구 면목동 사가정로,스트레스 해소; 감정 자극,37.5810816,127.0843842
유성헬스크럽,헬스/휘트니스,서울특별시 강남구 논현동 봉은사로1길,스트레스 해소; 감정 자극,37.5055742,127.0249179
코리아헬스,헬스/휘트니스,서울특별시 광진구 군자동 천호대로102길,스트레스 해소; 감정 자극,37.5575292,127.0735504
바위헬스,헬스/휘트니스,서울특별시 양천구 신월동 월정로,스트레스 해소; 감정 자극,37.532924,126.8363283
한미헬스피아,헬스/휘트니스,서울특별시 용산구 한남동 대사관로34길,스트레스 해소; 감정 자극,37.5316672,127.0057043
파워헬스클럽,헬스/휘트니스,서울특별시 서초구 서초동 서초중앙로6길,스트레스 해소; 감정 자극,37.4861424,127.0173723
킹헬스토피아,헬스/휘트니스,서울특별시 송파구 방이동 백제고분로48길,스트레스 해소; 감정 자극,37.511167,127.114537
캘리포니아,헬스/휘트니스,서울특별시 강남구 청담동 선릉로,스트레스 해소; 감정 자극,37.5231877,127.0391653
충암스포츠센터,스포츠센터,서울특별시 서대문구 남가좌동 명지대길,에너지 회복; 스트레스 해소,37.5830286,126.9233761
대성스포츠센터,스포츠센터,서울특별시 광진구 중곡동 용마산로,에너지 회복; 스트레스 해소,37.5633231,127.0869713
우창볼링센터,볼링장,서울특별시 동대문구 휘경동 망우로,스트레스 해소; 감정 자극,37.5899957,127.0624325
길동볼링센터,볼링장,서울특별시 강동구 길동 양재대로,스트레스 해소; 감정 자극,37.5375025,127.1398729
한산체육관,지역실내체육관,서울특별시 강동구 둔촌동 명일로,에너지 회복; 스트레스 해소,37.5324351,127.1441069
전농체육관,지역실내체육관,서울특별시 동대문구 전농동 전농로23길,에너지 회복; 스트레스 해소,37.5788448,127.0534646
현대체육관,지역실내체육관,서울특별시 은평구 구산동 서오릉로,에너지 회복; 스트레스 해소,37.6129309,126.9137875
전우체육관,지역실내체육관,서울특별시 노원구 상계동 한글비석로24길,에너지 회복; 스트레스 해소,37.6629079,127.0725669
마을종합체육관,지역실내체육관,서울특별시 강동구 성내동 올림픽로,에너지 회복; 스트레스 해소,37.5313695,127.1208518
그랜드볼링센터,볼링장,서울특별시 금천구 가산동 가산로9길,스트레스 해소; 감정 자극,37.4766687,126.8906247
서울특별시교육청학생체육관,대형실내체육관,서울특별시 송파구 잠실동 올림픽로,에너지 회복; 스트레스 해소,37.5115211,127.0757714
동문체육관,지역실내체육관,서울특별시 동대문구 장안동 장한로26다길,에너지 회복; 스트레스 해소,37.5671666,127.071135
세종볼링센터,볼링장,서울특별시 종로구 내수동 새문안로3길,스트레스 해소; 감정 자극,37.5729873,126.9726494
종합체육관,지역실내체육관,서울특별시 성동구 금호동4가 독서당로46가길,에너지 회복; 스트레스 해소,37.5476621,127.0211345
진리체육관,지역실내체육관,서울특별시 서대문구 남가좌동 명지대길,에너지 회복; 스트레스 해소,37.5830286,126.9233761
우성스포닉센터,스포츠센터,서울특별시 동작구 신대방동 여의대방로,에너지 회복; 스트레스 해소,37.4967762,126.9159857
태릉선수촌개선관,지역실내체육관,서울특별시 노원구 공릉동 화랑로,에너지 회복; 스트레스 해소,37.6317176,127.1005228
태성체육관,지역실내체육관,서울특별시 성북구 석관동 돌곶이로14길,에너지 회복; 스트레스 해소,37.6092182,127.0621339
곰두리체육센터,스포츠센터,서울특별시 송파구 오금동 동남로,에너지 회복; 스트레스 해소,37.5056449,127.1391853
위너스볼링장,볼링장,서울특별시 금천구 독산동 시흥대로,스트레스 해소; 감정 자극,37.4669034,126.8978902
대청레포츠센터,스포츠센터,서울특별시 강남구 개포동 개포로,에너지 회복; 스트레스 해소,37.489715,127.0695778
용성스포츠센터,스포츠센터,서울특별시 동대문구 전농동 사가정로,에너지 회복; 스트레스 해소,37.5747671,127.0536195
개운스포츠센터,스포츠센터,서울특별시 성북구 종암동 북악산로,에너지 회복; 스트레스 해소,37.5995928,127.0266999
신사스포츠센터,스포츠센터,서울특별시 서초구 잠원동 나루터로,에너지 회복; 스트레스 해소,37.5161333,127.0120671
동천빙상경기장,지역실내체육관,서울특별시 노원구 하계동 노원로18길,에너지 회복; 스트레스 해소,37.6438142,127.0734347
크리스탈수영장,일반수영장,서울특별시 강남구 신사동 압구정로,에너지 회복; 안정감,37.5236257,127.0215285
잠실카트체험장,일반경기장,서울특별시 송파구 잠실동 ,에너지 회복; 스트레스 해소,37.5122807,127.0855986
골드수영장,일반수영장,서울특별시 광진구 광장동 아차산로78길,에너지 회복; 안정감,37.5509773,127.1108714
싸이헬스,헬스/휘트니스,서울특별시 은평구 역촌동 서오릉로7길,스트레스 해소; 감정 자극,37.60662,126.9213722
로얄당구장,당구장,서울특별시 송파구 삼전동 삼학사로19길,스트레스 해소; 감정 자극,37.5062041,127.0942154
힐스포파크,헬스/휘트니스,서울특별시 동대문구 답십리동 답십리로,스트레스 해소; 감정 자극,37.5747327,127.0499421
성은헬스클럽,헬스/휘트니스,서울특별시 서대문구 북가좌동 증가로,스트레스 해소; 감정 자극,37.5813203,126.9151431
서울레포츠센터,스포츠센터,서울특별시 강동구 고덕동 고덕로,에너지 회복; 스트레스 해소,37.556037,127.1455687
한경스포렉스,헬스/휘트니스,서울특별시 서초구 반포동 신반포로,스트레스 해소; 감정 자극,37.5044399,126.9996177
르메이에르헬스,헬스/휘트니스,서울특별시 관악구 남현동 과천대로,스트레스 해소; 감정 자극,37.4644544,126.9881404
화인헬스,헬스/휘트니스,서울특별시 광진구 구의동 자양로,스트레스 해소; 감정 자극,37.5482638,127.0888426
동우헬스,헬스/휘트니스,서울특별시 성동구 용답동 천호대로,스트레스 해소; 감정 자극,37.5718615,127.0440633
영헬스센터,헬스/휘트니스,서울특별시 서대문구 북가좌동 응암로,스트레스 해소; 감정 자극,37.5852314,126.915723
대성휘트니스,헬스/휘트니스,서울특별시 광진구 중곡동 용마산로,스트레스 해소; 감정 자극,37.5633231,127.0869713
목동스포츠센터,스포츠센터,서울특별시 양천구 목동 목동서로,에너지 회복; 스트레스 해소,37.5316107,126.8751281
현대스포츠클럽,스포츠센터,서울특별시 서초구 방배동 방배로,에너지 회복; 스트레스 해소,37.4783113,126.9997061
VIP휘트니스,헬스/휘트니스,서울특별시 마포구 동교동 월드컵북로,스트레스 해소; 감정 자극,37.5567685,126.9196652
뉴서울헬스클럽,헬스/휘트니스,서울특별시 동대문구 장안동 장한로5길,스트레스 해소; 감정 자극,37.5650024,127.064404
장안헬스,헬스/휘트니스,서울특별시 성동구 금호동2가 무수막길,스트레스 해소; 감정 자극,37.5508993,127.0231793
종로헬스클럽,헬스/휘트니스,서울특별시 종로구 숭인동 종로,스트레스 해소; 감정 자극,37.5736453,127.0165769
건우헬스클럽,헬스/휘트니스,서울특별시 서대문구 남가좌동 증가로,스트레스 해소; 감정 자극,37.5766818,126.9155933
스톤희트니스,헬스/휘트니스,서울특별시 송파구 잠실동 백제고분로,스트레스 해소; 감정 자극,37.5142763,127.077649
럭키볼링센터,볼링장,서울특별시 강북구 번동 한천로,스트레스 해소; 감정 자극,37.6315714,127.0400311
동서울헬스,헬스/휘트니스,서울특별시 강동구 암사동 올림픽로,스트레스 해소; 감정 자극,37.5585235,127.1306295
성신볼링장,볼링장,서울특별시 성북구 동선동1가 보문로34길,스트레스 해소; 감정 자극,37.5909355,127.0191774
로즈헬스클럽,헬스/휘트니스,서울특별시 송파구 오금동 마천로,스트레스 해소; 감정 자극,37.5073421,127.1289918
태화볼링센터,볼링장,서울특별시 마포구 서교동 와우산로,스트레스 해소; 감정 자극,37.5564843,126.9309958
비원볼링센터,볼링장,서울특별시 종로구 원서동 창덕궁1길,스트레스 해소; 감정 자극,37.5792731,126.9888968
석촌볼링장,볼링장,서울특별시 송파구 석촌동 백제고분로,스트레스 해소; 감정 자극,37.5025616,127.0991797
우성볼링센터,볼링장,서울특별시 광진구 자양동 뚝섬로,스트레스 해소; 감정 자극,37.5352838,127.0684803
한화여의수영장,일반수영장,서울특별시 영등포구 여의도동 국제금융로,에너지 회복; 안정감,37.5255491,126.9274753
유성수영장,일반수영장,서울특별시 강남구 신사동 압구정로,에너지 회복; 안정감,37.5236257,127.0215285
온천실내수영장,일반수영장,서울특별시 동대문구 신설동 한빛로,에너지 회복; 안정감,37.5780258,127.027523
한국헬스체육관,헬스/휘트니스,서울특별시 동대문구 용두동 무학로,스트레스 해소; 감정 자극,37.5779746,127.0304297
쌍용스쿼시클럽,스포츠센터,서울특별시 강남구 논현동 논현로,에너지 회복; 스트레스 해소,37.5181326,127.0287585
시그마헬스클럽,헬스/휘트니스,서울특별시 동작구 신대방동 보라매로5길,스트레스 해소; 감정 자극,37.4909608,126.9228422
월슨스포츠클럽,헬스/휘트니스,서울특별시 구로구 구로동 구로중앙로,스트레스 해소; 감정 자극,37.5010998,126.8818877
궁전헬스,헬스/휘트니스,서울특별시 구로구 신도림동 ,스트레스 해소; 감정 자극,37.50941,126.88285
아센휘트니스,헬스/휘트니스,서울특별시 동작구 흑석동 서달로,스트레스 해소; 감정 자극,37.4989014,126.9597432
위너스헬스클럽,헬스/휘트니스,서울특별시 동대문구 이문동 한천로,스트레스 해소; 감정 자극,37.5953727,127.0681563
리버시티,수상스포츠,서울특별시 강남구 압구정동 압구정로11길,감정 자극; 스트레스 해소,37.5253133,127.0214362
삼성스포렉스,스포츠센터,서울특별시 동작구 상도동 양녕로30길,에너지 회복; 스트레스 해소,37.4992992,126.9449526
잠실종합운동장잠실야구장,프로야구경기장,서울특별시 송파구 잠실동 올림픽로,에너지 회복; 스트레스 해소,37.5115211,127.0757714
강북구민운동장웰빙스포츠센터,스포츠센터,서울특별시 강북구 번동 오현로31길,에너지 회복; 스트레스 해소,37.6306904,127.0380088
경기스포츠센터,스포츠센터,서울특별시 서대문구 충정로2가 경기대로,에너지 회복; 스트레스 해소,37.5624361,126.9618463
르와휘트니스,헬스/휘트니스,서울특별시 강남구 도곡동 언주로,스트레스 해소; 감정 자극,37.4895722,127.0490511
준헬스클럽,헬스/휘트니스,서울특별시 강남구 개포동 선릉로,스트레스 해소; 감정 자극,37.4792126,127.0647854
헬스코리아클럽,헬스/휘트니스,서울특별시 중랑구 면목동 면목로,스트레스 해소; 감정 자극,37.5816841,127.0886238
서울디지털운동장,일반경기장,서울특별시 금천구 가산동 가산디지털2로,에너지 회복; 스트레스 해소,37.4820799,126.8781353
잠실종합운동장잠실실내수영장,일반수영장,서울특별시 송파구 잠실동 올림픽로,에너지 회복; 안정감,37.5115211,127.0757714
태릉국제사격장,사격장,서울특별시 노원구 공릉동 화랑로,감정 자극; 스트레스 해소,37.6317176,127.1005228
송파수영장,일반수영장,서울특별시 송파구 잠실동 올림픽로,에너지 회복; 안정감,37.5115211,127.0757714
YMCA서초수영장,일반수영장,서울특별시 서초구 반포동 사평대로,에너지 회복; 안정감,37.5014683,127.0018479
관악구립운동장,일반경기장,서울특별시 관악구 신림동 ,에너지 회복; 스트레스 해소,37.4868283,126.9282666
반포공설운동장,공설/시민운동장,서울특별시 서초구 반포동 신반포로16길,에너지 회복; 스트레스 해소,37.4998032,126.9967101
잠실종합운동장,종합운동장컴플렉스,서울특별시 송파구 잠실동 올림픽로,에너지 회복; 스트레스 해소,37.5115211,127.0757714
서울월드컵경기장,월드컵경기장,서울특별시 마포구 성산동 월드컵로,에너지 회복; 스트레스 해소,37.5664374,126.8963377
성동구민종합체육센터,지역체육센터,서울특별시 성동구 성수동1가 왕십리로,에너지 회복; 스트레스 해소,37.5397618,127.04374
동대문구체육관,지역실내체육관,서울특별시 동대문구 답십리동 답십리로,에너지 회복; 스트레스 해소,37.5747327,127.0499421
광진구민체육센터,지역체육센터,서울특별시 광진구 광장동 구천면로,에너지 회복; 스트레스 해소,37.5466968,127.1062895
성북종합레포츠타운,지역체육센터,서울특별시 성북구 석관동 한천로58길,에너지 회복; 스트레스 해소,37.6100056,127.0703623
금천구민문화체육센터,지역체육센터,서울특별시 금천구 독산동 독산로54길,에너지 회복; 스트레스 해소,37.4711591,126.9066107
동작구민체육센터,지역체육센터,서울특별시 동작구 신대방동 여의대방로16길,에너지 회복; 스트레스 해소,37.4942544,126.9164475
마포아트센터,지역체육센터,서울특별시 마포구 대흥동 대흥로20길,에너지 회복; 스트레스 해소,37.5503543,126.9451475
서초체육센터,지역체육센터,서울특별시 서초구 반포동 사평대로,에너지 회복; 스트레스 해소,37.5014683,127.0018479
은평구민체육센터,지역체육센터,서울특별시 은평구 진관동 진관1로,에너지 회복; 스트레스 해소,37.632951,126.9201794
고덕체육센터,지역체육센터,서울특별시 강동구 상일동 구천면로93길,에너지 회복; 스트레스 해소,37.5519674,127.1682471
흑석체육센터,지역체육센터,서울특별시 동작구 흑석동 현충로,에너지 회복; 스트레스 해소,37.5109655,126.9617918
송파구체육센터,지역체육센터,서울특별시 송파구 거여동 양산로,에너지 회복; 스트레스 해소,37.4912571,127.1436281
마장체육센터,지역체육센터,서울특별시 성동구 마장동 마조로11길,에너지 회복; 스트레스 해소,37.5617989,127.0402981
장평근린공원동대문구민체육센터,지역체육센터,서울특별시 동대문구 장안동 장안벚꽃로,에너지 회복; 스트레스 해소,37.5644149,127.0729096
월드스포츠타운,지역체육센터,서울특별시 강북구 수유동 삼양로,에너지 회복; 스트레스 해소,37.6353867,127.0170277
해공체육문화센터,지역체육센터,서울특별시 강동구 천호동 천중로18길,에너지 회복; 스트레스 해소,37.5438076,127.1299377
강동건강생활관,지역체육센터,서울특별시 강동구 성내동 성내로14길,에너지 회복; 스트레스 해소,37.5259147,127.1260102
잠실종합운동장SK나이츠홈구장,대형실내체육관,서울특별시 송파구 잠실동 올림픽로,에너지 회복; 스트레스 해소,37.5115211,127.0757714
장충체육관,대형실내체육관,서울특별시 중구 장충동2가 동호로,에너지 회복; 스트레스 해소,37.5580005,127.0081609
잠실종합운동장잠실실내체육관,대형실내체육관,서울특별시 송파구 잠실동 올림픽로,에너지 회복; 스트레스 해소,37.5115211,127.0757714
고려대학교아이스링크,스케이트장,서울특별시 성북구 안암동5가 안암로,에너지 회복; 스트레스 해소,37.5841523,127.030459
롯데월드아이스가든,스케이트장,서울특별시 송파구 잠실동 올림픽로,에너지 회복; 스트레스 해소,37.5115211,127.0757714
그랜드하얏트호텔서울아이스링크,스케이트장,서울특별시 용산구 한남동 소월로,에너지 회복; 스트레스 해소,37.5455117,127.0025952
태릉선수촌태릉국제스케이트장,스케이트장,서울특별시 노원구 공릉동 화랑로,에너지 회복; 스트레스 해소,37.6317176,127.1005228
그랜드워커힐서울워커힐아이스링크,스케이트장,서울특별시 광진구 광장동 워커힐로,에너지 회복; 스트레스 해소,37.5442671,127.0973323
야구연습장,야구연습장,서울특별시 관악구 신림동 남부순환로,에너지 회복; 스트레스 해소,37.4840758,126.9279131
IONE스포츠클럽,지역실내체육관,서울특별시 서대문구 남가좌동 명지대길,에너지 회복; 스트레스 해소,37.5830286,126.9233761
르메이에르스포츠,지역실내체육관,서울특별시 종로구 청진동 종로,에너지 회복; 스트레스 해소,37.5701419,126.9773924
광나루한강공원광나루수영장,일반수영장,서울특별시 강동구 천호동 ,에너지 회복; 안정감,37.54294,127.12733
스마일스포츠센터,스포츠센터,서울특별시 중구 소공동 남대문로7길,에너지 회복; 스트레스 해소,37.5637679,126.9816538
웰빙스포렉스,스포츠센터,서울특별시 성북구 상월곡동 장월로3길,에너지 회복; 스트레스 해소,37.6092157,127.0442348
투자기관체육센터,지역체육센터,서울특별시 성동구 용답동 천호대로78길,에너지 회복; 스트레스 해소,37.5621411,127.0570895
뚝섬한강공원뚝섬눈썰매장,눈썰매장,서울특별시 광진구 자양동 ,감정 자극; 스트레스 해소,37.5316904,127.0749477
제일스포츠클럽,헬스/휘트니스,서울특별시 송파구 가락동 송파대로,스트레스 해소; 감정 자극,37.4908618,127.1200542
드림스포렉스,지역체육센터,서울특별시 강남구 역삼동 역삼로,에너지 회복; 스트레스 해소,37.4995545,127.0478452
성북구민체육관,지역체육센터,서울특별시 성북구 하월곡동 화랑로13길,에너지 회복; 스트레스 해소,37.6049233,127.0418097
스위트짐,헬스/휘트니스,서울특별시 성북구 길음동 삼양로,스트레스 해소; 감정 자극,37.609796,127.0220153
W골프헬스,헬스/휘트니스,서울특별시 강남구 신사동 압구정로30길,스트레스 해소; 감정 자극,37.5248281,127.0291103
동아골프스쿨,실내골프/스크린골프,서울특별시 강남구 수서동 광평로47길,에너지 회복; 스트레스 해소,37.4876789,127.0993489
버디골프스쿨,실내골프/스크린골프,서울특별시 강남구 신사동 압구정로,에너지 회복; 스트레스 해소,37.5236257,127.0215285
메디스골프클럽,실내골프/스크린골프,서울특별시 강남구 논현동 봉은사로,에너지 회복; 스트레스 해소,37.5055954,127.0280206
삼성골프스쿨,실내골프/스크린골프,서울특별시 강남구 대치동 도곡로,에너지 회복; 스트레스 해소,37.5001811,127.0648705
동성골프클리닉,실내골프/스크린골프,서울특별시 강남구 삼성동 테헤란로87길,에너지 회복; 스트레스 해소,37.5086166,127.0589795
세종골프스쿨,실내골프/스크린골프,서울특별시 광진구 구의동 광나루로,에너지 회복; 스트레스 해소,37.5449828,127.0880163
싱글골프스쿨,실내골프/스크린골프,서울특별시 서초구 양재동 강남대로,에너지 회복; 스트레스 해소,37.4716569,127.0385394
골드골프연습장,실내골프/스크린골프,서울특별시 광진구 광장동 아차산로78길,에너지 회복; 스트레스 해소,37.5509773,127.1108714
골프로아카데미,실내골프/스크린골프,서울특별시 강남구 삼성동 봉은사로,에너지 회복; 스트레스 해소,37.5136222,127.0567549
홍익골프스쿨,실내골프/스크린골프,서울특별시 강남구 청담동 학동로,에너지 회복; 스트레스 해소,37.5181087,127.0457549
현대밸리골프클럽,실내골프/스크린골프,서울특별시 광진구 자양동 뚝섬로,에너지 회복; 스트레스 해소,37.5352838,127.0684803
블루스카이,실내골프/스크린골프,서울특별시 성북구 정릉동 정릉로,에너지 회복; 스트레스 해소,37.611849,126.9922832
코레스코골프클럽,실내골프/스크린골프,서울특별시 송파구 오금동 위례성대로,에너지 회복; 스트레스 해소,37.5102891,127.1314015
마스터스골프클럽,실내골프/스크린골프,서울특별시 광진구 자양동 능동로,에너지 회복; 스트레스 해소,37.5375517,127.0696332
서초골프아카데미,실내골프/스크린골프,서울특별시 서초구 서초동 효령로,에너지 회복; 스트레스 해소,37.4864209,127.0214463
KPGAGDR골프장,실내골프/스크린골프,서울특별시 강동구 명일동 동남로73길,에너지 회복; 스트레스 해소,37.5528897,127.1548048
베스트골프크럽,실내골프/스크린골프,서울특별시 강남구 도곡동 도곡로,에너지 회복; 스트레스 해소,37.4932782,127.0437644
Q골프연습장,실내골프/스크린골프,서울특별시 강동구 명일동 구천면로,에너지 회복; 스트레스 해소,37.549148,127.1509946
신라골프클리닉,실내골프/스크린골프,서울특별시 양천구 신정동 신월로,에너지 회복; 스트레스 해소,37.5213479,126.8521006
드림골프클럽,실내골프/스크린골프,서울특별시 강남구 역삼동 역삼로,에너지 회복; 스트레스 해소,37.4995545,127.0478452
KPGA골프,실내골프/스크린골프,서울특별시 강남구 대치동 영동대로50길,에너지 회복; 스트레스 해소,37.4989377,127.0706377
라이프골프연습장,실내골프/스크린골프,서울특별시 강서구 화곡동 강서로,에너지 회복; 스트레스 해소,37.5388966,126.8423494
미도골프연습장,실내골프/스크린골프,서울특별시 강남구 대치동 삼성로,에너지 회복; 스트레스 해소,37.5028596,127.0591472
무학골프존,실내골프/스크린골프,서울특별시 성동구 행당동 고산자로10길,에너지 회복; 스트레스 해소,37.558416,127.0360465
SD골프클리닉,실내골프/스크린골프,서울특별시 서초구 우면동 바우뫼로7길,에너지 회복; 스트레스 해소,37.4713458,127.0245034
아에라골프연습장,실내골프/스크린골프,서울특별시 성북구 석관동 화랑로,에너지 회복; 스트레스 해소,37.6115128,127.0595792
강동골프연습장,실내골프/스크린골프,서울특별시 강동구 둔촌동 진황도로,에너지 회복; 스트레스 해소,37.5276895,127.1448084
안국골프아카데미,실내골프/스크린골프,서울특별시 종로구 경운동 삼일대로,에너지 회복; 스트레스 해소,37.5711546,126.987675
현대골프아카데미,실내골프/스크린골프,서울특별시 강남구 압구정동 압구정로,에너지 회복; 스트레스 해소,37.52735,127.0288606
마이골프클럽,실내골프/스크린골프,서울특별시 서초구 반포동 신반포로,에너지 회복; 스트레스 해소,37.5044399,126.9996177
쌍용골프스쿨,실내골프/스크린골프,서울특별시 강남구 대치동 영동대로,에너지 회복; 스트레스 해소,37.5018574,127.0671243
KMP골프아카데미,실내골프/스크린골프,서울특별시 서초구 서초동 효령로,에너지 회복; 스트레스 해소,37.4864209,127.0214463
COS골프아카데미,실내골프/스크린골프,서울특별시 양천구 신정동 신월로,에너지 회복; 스트레스 해소,37.5213479,126.8521006
신영골프스쿨,실내골프/스크린골프,서울특별시 강남구 청담동 영동대로,에너지 회복; 스트레스 해소,37.5225801,127.0558739
거명골프클럽,실내골프/스크린골프,서울특별시 강남구 대치동 남부순환로,에너지 회복; 스트레스 해소,37.4970649,127.0715566
진영골프연습장,실내골프/스크린골프,서울특별시 강동구 둔촌동 천호대로,에너지 회복; 스트레스 해소,37.5330201,127.1397104
파인골프연습장,실내골프/스크린골프,서울특별시 강남구 역삼동 언주로,에너지 회복; 스트레스 해소,37.4963919,127.0458068
프로골프아카데미,실내골프/스크린골프,서울특별시 용산구 동빙고동 장문로,에너지 회복; 스트레스 해소,37.5275656,126.994885
동영문화센터,실내골프/스크린골프,서울특별시 강남구 역삼동 언주로,에너지 회복; 스트레스 해소,37.4963919,127.0458068
뉴골드골프,실내골프/스크린골프,서울특별시 강남구 개포동 개포로82길,에너지 회복; 스트레스 해소,37.4886504,127.0683323
팔레스골프,실내골프/스크린골프,서울특별시 용산구 동자동 후암로,에너지 회복; 스트레스 해소,37.5538566,126.973606
팬다스크린골프,실내골프/스크린골프,서울특별시 서초구 방배동 방배로,에너지 회복; 스트레스 해소,37.4783113,126.9997061
럭키골프클럽,실내골프/스크린골프,서울특별시 강남구 도곡동 논현로,에너지 회복; 스트레스 해소,37.4890827,127.0414718
한양골프연습장,실내골프/스크린골프,서울특별시 강남구 청담동 영동대로138길,에너지 회복; 스트레스 해소,37.5230871,127.0566819
서초골프클럽,실내골프/스크린골프,서울특별시 서초구 서초동 서초중앙로,에너지 회복; 스트레스 해소,37.4875623,127.0147933
뉴원골프스쿨,실내골프/스크린골프,서울특별시 송파구 풍납동 올림픽로,에너지 회복; 스트레스 해소,37.5268263,127.1183989
현대골프장,실내골프/스크린골프,서울특별시 송파구 삼전동 석촌호수로,에너지 회복; 스트레스 해소,37.5071463,127.0933544
버디골프클럽,실내골프/스크린골프,서울특별시 관악구 신림동 신림로,에너지 회복; 스트레스 해소,37.4739083,126.9335176
이글골프연습장,실내골프/스크린골프,서울특별시 송파구 오금동 마천로8길,에너지 회복; 스트레스 해소,37.5068778,127.1277103
김프로골프아카데미,실내골프/스크린골프,서울특별시 송파구 송파동 가락로,에너지 회복; 스트레스 해소,37.504081,127.1141497
상일골프스쿨,실내골프/스크린골프,서울특별시 강동구 상일동 상암로,에너지 회복; 스트레스 해소,37.5457865,127.1614564
교대골프연습장,실내골프/스크린골프,서울특별시 서초구 서초동 서초대로,에너지 회복; 스트레스 해소,37.4943665,127.0161747
포시즌스크린골프,실내골프/스크린골프,서울특별시 송파구 송파동 오금로,에너지 회복; 스트레스 해소,37.5089417,127.1146343
상아골프연습장,실내골프/스크린골프,서울특별시 송파구 오금동 오금로,에너지 회복; 스트레스 해소,37.5030459,127.1265606
대영골프연습장,실내골프/스크린골프,서울특별시 서초구 서초동 효령로,에너지 회복; 스트레스 해소,37.4864209,127.0214463
대원골프연습장,실내골프/스크린골프,서울특별시 서초구 서초동 서초대로,에너지 회복; 스트레스 해소,37.4943665,127.0161747
코하골프연습장,실내골프/스크린골프,서울특별시 관악구 신림동 남부순환로,에너지 회복; 스트레스 해소,37.4840758,126.9279131
PGA골프클리닉,실내골프/스크린골프,서울특별시 강남구 개포동 개포로,에너지 회복; 스트레스 해소,37.489715,127.0695778
대동골프연습장,실내골프/스크린골프,서울특별시 구로구 구로동 구로동로47길,에너지 회복; 스트레스 해소,37.4975194,126.8817958
동호골프연습장,실외골프연습장,서울특별시 성북구 석관동 돌곶이로22가길,에너지 회복; 스트레스 해소,37.6099071,127.0599509
인토골프연습장,실내골프/스크린골프,서울특별시 송파구 가락동 송이로,에너지 회복; 스트레스 해소,37.4976311,127.1210496
서경골프클럽,실내골프/스크린골프,서울특별시 마포구 서교동 잔다리로,에너지 회복; 스트레스 해소,37.5569376,126.9141526
임페리얼골프아카데미,실내골프/스크린골프,서울특별시 성동구 행당동 왕십리로,에너지 회복; 스트레스 해소,37.5585868,127.0379182
포시즌골프연습장,실내골프/스크린골프,서울특별시 양천구 신월동 남부순환로,에너지 회복; 스트레스 해소,37.5327968,126.8304943
정릉골프클럽,실외골프연습장,서울특별시 성북구 정릉동 정릉로,에너지 회복; 스트레스 해소,37.611849,126.9922832
스포피아골프,실외골프연습장,서울특별시 강남구 청담동 학동로95길,에너지 회복; 스트레스 해소,37.5216881,127.0538226
비전골프연습장,실외골프연습장,서울특별시 송파구 삼전동 ,에너지 회복; 스트레스 해소,37.5014521,127.0901512
김포국제공항골프포트,실외골프연습장,서울특별시 강서구 공항동 하늘길,에너지 회복; 스트레스 해소,37.5580784,126.8059344
파스텔골프클럽,실외골프연습장,서울특별시 서초구 잠원동 신반포로33길,에너지 회복; 스트레스 해소,37.5127961,127.0098265
중계골프연습장,실외골프연습장,서울특별시 노원구 중계동 중계로,에너지 회복; 스트레스 해소,37.6413977,127.0832957
갤럭시아골프클럽,실외골프연습장,서울특별시 서초구 양재동 바우뫼로12길,에너지 회복; 스트레스 해소,37.4690867,127.0332845
위너스골프클럽,실외골프연습장,서울특별시 금천구 독산동 시흥대로,에너지 회복; 스트레스 해소,37.4684383,126.8980548
당산골프클럽,실외골프연습장,서울특별시 영등포구 당산동3가 당산로31길,에너지 회복; 스트레스 해소,37.5272681,126.8948022
르까프골프,실외골프연습장,서울특별시 강남구 대치동 역삼로98길,에너지 회복; 스트레스 해소,37.5038133,127.0645501
효창골프클럽,실외골프연습장,서울특별시 용산구 청파동3가 효창원로,에너지 회복; 스트레스 해소,37.5426503,126.962189
증산골프연습장,실외골프연습장,서울특별시 은평구 증산동 증산로3길,에너지 회복; 스트레스 해소,37.5812891,126.9058908
동주골프연습장,실외골프연습장,서울특별시 송파구 방이동 오금로11길,에너지 회복; 스트레스 해소,37.5155822,127.1141604
도봉종합골프,실외골프연습장,서울특별시 도봉구 창동 해등로3길,에너지 회복; 스트레스 해소,37.6468721,127.041772
아넥스골프클럽,실외골프연습장,서울특별시 송파구 방이동 오금로19길,에너지 회복; 스트레스 해소,37.5112279,127.1140578
1005골프연습장,실외골프연습장,서울특별시 강동구 천호동 구천면로,에너지 회복; 스트레스 해소,37.5469479,127.1339475
공원골프연습장,실외골프연습장,서울특별시 송파구 방이동 백제고분로,에너지 회복; 스트레스 해소,37.5133798,127.1141211
오케이휘트니스,헬스/휘트니스,서울특별시 강남구 신사동 논현로,스트레스 해소; 감정 자극,37.5221386,127.0281594
럭키레포츠타운,실외골프연습장,서울특별시 강북구 번동 한천로,에너지 회복; 스트레스 해소,37.6315714,127.0400311
올림픽골프클럽,실외골프연습장,서울특별시 종로구 평창동 평창문화로,에너지 회복; 스트레스 해소,37.60421,126.9634721
스포타임골프,실외골프연습장,서울특별시 서초구 양재동 강남대로,에너지 회복; 스트레스 해소,37.4716569,127.0385394
용마골프클럽,실외골프연습장,서울특별시 중랑구 망우동 ,에너지 회복; 스트레스 해소,37.6008638,127.1076269
힐스포파크골프,실외골프연습장,서울특별시 동대문구 답십리동 답십리로,에너지 회복; 스트레스 해소,37.5747327,127.0499421
오동골프클럽,실외골프연습장,서울특별시 강북구 번동 오현로,에너지 회복; 스트레스 해소,37.6291546,127.0383981
원골프클럽,실외골프연습장,서울특별시 구로구 고척동 중앙로,에너지 회복; 스트레스 해소,37.4997829,126.8641328
렉스골프클럽,실외골프연습장,서울특별시 서대문구 홍은동 연희로41길,에너지 회복; 스트레스 해소,37.591422,126.934463
월계골프연습장,실외골프연습장,서울특별시 노원구 월계동 초안산로2길,에너지 회복; 스트레스 해소,37.6332374,127.0582922
농꿀가족농원낚시터,낚시터,서울특별시 은평구 진관동 의상봉길,안정감; 감정 정화,37.6528699,126.9427061
호반실내낚시터,낚시터,서울특별시 강서구 내발산동 강서로,안정감; 감정 정화,37.5507788,126.8363291
장충리틀야구장,지역야구장,서울특별시 중구 장충동2가 ,에너지 회복; 스트레스 해소,37.5541467,127.0002445
배명야구장,지역야구장,서울특별시 송파구 석촌동 ,에너지 회복; 스트레스 해소,37.5024827,127.103495
광나루한강공원광나루유원지야구장,지역야구장,서울특별시 송파구 풍납동 ,에너지 회복; 스트레스 해소,37.5337445,127.1150318
어린이대공원잔디축구장,지역축구장,서울특별시 광진구 능동 능동로,에너지 회복; 스트레스 해소,37.5534476,127.0777669
초안산근린공원창골잔디구장,지역축구장,서울특별시 도봉구 창동 ,에너지 회복; 스트레스 해소,37.6525981,127.047978
은평구민축구장,지역축구장,서울특별시 은평구 진관동 진관1로,에너지 회복; 스트레스 해소,37.6330332,126.9298849
강북구민운동장,지역(마을/단지)운동장,서울특별시 강북구 번동 오현로,에너지 회복; 스트레스 해소,37.6291546,127.0383981
대림운동장,지역(마을/단지)운동장,서울특별시 영등포구 대림동 가마산로31길,에너지 회복; 스트레스 해소,37.5003388,126.8937751
방죽소운동장,지역(마을/단지)운동장,서울특별시 강동구 고덕동 고덕로,에너지 회복; 스트레스 해소,37.556037,127.1455687
제2월곡인조잔디구장,지역(마을/단지)운동장,서울특별시 성북구 상월곡동 장월로3길,에너지 회복; 스트레스 해소,37.6092157,127.0442348
국회의사당둔치운동장,지역(마을/단지)운동장,서울특별시 영등포구 여의도동 의사당대로,에너지 회복; 스트레스 해소,37.5264945,126.9190922
중랑잔디운동장,공설/시민운동장,서울특별시 중랑구 망우동 ,에너지 회복; 스트레스 해소,37.6008638,127.1076269
효창공원효창운동장,지역(마을/단지)운동장,서울특별시 용산구 효창동 효창원로,에너지 회복; 스트레스 해소,37.5426503,126.962189
씨랄라워터파크,워터파크,서울특별시 영등포구 문래동3가 문래로,감정 자극; 스트레스 해소,37.5188225,126.8966881
CSH골프연습장,실내골프/스크린골프,서울특별시 영등포구 여의도동 국제금융로6길,에너지 회복; 스트레스 해소,37.521872,126.9275525
CSH헬스클럽,헬스/휘트니스,서울특별시 영등포구 여의도동 국제금융로6길,스트레스 해소; 감정 자극,37.521872,126.9275525
WOW스포츠아카데미,스포츠센터,서울특별시 영등포구 여의도동 국제금융로,에너지 회복; 스트레스 해소,37.5209509,126.9318158
스카이24,당구장,서울특별시 영등포구 여의도동 국제금융로,스트레스 해소; 감정 자극,37.5209509,126.9318158
돈암문화스포츠센터,스포츠센터,서울특별시 성북구 동소문동6가 동소문로13길,에너지 회복; 스트레스 해소,37.5938195,127.0117806
극동스포츠센터,스포츠센터,서울특별시 강남구 신사동 압구정로,에너지 회복; 스트레스 해소,37.5283635,127.0383787
21세기탁구장,탁구장,서울특별시 강동구 명일동 동남로73길,에너지 회복; 스트레스 해소,37.5528897,127.1548048
메이필드호텔골프연습장,실외골프연습장,서울특별시 강서구 외발산동 방화대로,에너지 회복; 스트레스 해소,37.5505609,126.8166548
잠실종합운동장보조경기장,주/보조경기장,서울특별시 송파구 잠실동 올림픽로,에너지 회복; 스트레스 해소,37.5115211,127.0757714
잠실종합운동장올림픽주경기장,주/보조경기장,서울특별시 송파구 잠실동 올림픽로,에너지 회복; 스트레스 해소,37.5115211,127.0757714
잠실한강공원잠실수영장,일반수영장,서울특별시 송파구 잠실동 한가람로,에너지 회복; 안정감,37.5162541,127.0841489
잠원한강공원수영장,일반수영장,서울특별시 서초구 잠원동 잠원로,에너지 회복; 안정감,37.5204886,127.0152037
뚝섬한강공원뚝섬지구수영장,일반수영장,서울특별시 광진구 자양동 ,에너지 회복; 안정감,37.5316904,127.0749477
망원한강공원수영장,일반수영장,서울특별시 마포구 망원동 ,에너지 회복; 안정감,37.5560241,126.9009751
국도체육관,지역실내체육관,서울특별시 광진구 능동 천호대로112길,에너지 회복; 스트레스 해소,37.5545532,127.0808081
보성태권도장,지역실내체육관,서울특별시 광진구 광장동 아차산로,에너지 회복; 스트레스 해소,37.5422968,127.0993383
동명체육관,지역실내체육관,서울특별시 성동구 마장동 마장로27길,에너지 회복; 스트레스 해소,37.5669939,127.034266
삼부그린스포츠센터,스포츠센터,서울특별시 중랑구 신내동 용마산로,에너지 회복; 스트레스 해소,37.6136706,127.1008398
금강스포츠센터,스포츠센터,서울특별시 강서구 방화동 금낭화로,에너지 회복; 스트레스 해소,37.5799066,126.8109245
삼성레포츠센터,스포츠센터,서울특별시 서초구 서초동 서초대로64길,에너지 회복; 스트레스 해소,37.4916866,127.021236
메디스클럽,스포츠센터,서울특별시 강남구 논현동 봉은사로,에너지 회복; 스트레스 해소,37.5055954,127.0280206
성모재활센터,스포츠센터,서울특별시 중랑구 신내동 신내로,에너지 회복; 스트레스 해소,37.6170231,127.0920103
로제우스레포츠센터,스포츠센터,서울특별시 종로구 구기동 진흥로,에너지 회복; 스트레스 해소,37.6085043,126.9555665
시그마스포츠,스포츠센터,서울특별시 송파구 신천동 올림픽로,에너지 회복; 스트레스 해소,37.5146284,127.1018612
서울스포츠클럽,스포츠센터,서울특별시 종로구 연지동 김상옥로,에너지 회복; 스트레스 해소,37.5732512,127.0012494
청담스포피아,스포츠센터,서울특별시 강남구 청담동 학동로95길,에너지 회복; 스트레스 해소,37.5216881,127.0538226
로얄스포츠센터,스포츠센터,서울특별시 중랑구 중화동 망우로,에너지 회복; 스트레스 해소,37.5946423,127.0786774
코하스포츠센터,스포츠센터,서울특별시 관악구 봉천동 관악로,에너지 회복; 스트레스 해소,37.4812588,126.9527443
연세스포츠센터,스포츠센터,서울특별시 서대문구 홍제동 통일로,에너지 회복; 스트레스 해소,37.5838023,126.9495888
구의야구공원,지역야구장,서울특별시 광진구 구의동 워커힐로,에너지 회복; 스트레스 해소,37.5474681,127.098195
여의도한강공원파크골프장,퍼블릭골프장,서울특별시 영등포구 여의도동 ,에너지 회복; 스트레스 해소,37.5284646,126.9300522
올림픽기념국민생활관,지역체육센터,서울특별시 종로구 혜화동 성균관로,에너지 회복; 스트레스 해소,37.585413,126.9972643
잠실종합운동장삼성썬더스홈구장,대형실내체육관,서울특별시 송파구 잠실동 올림픽로,에너지 회복; 스트레스 해소,37.5115211,127.0757714
뚝섬한강공원쥬티클럽,수상스포츠,서울특별시 광진구 자양동 ,감정 자극; 스트레스 해소,37.5316904,127.0749477
뚝섬한강공원슈퍼스타즈,수상스포츠,서울특별시 광진구 자양동 ,감정 자극; 스트레스 해소,37.5316904,127.0749477
오금근린공원송파인라인경기장,스케이트장,서울특별시 송파구 오금동 오금로,에너지 회복; 스트레스 해소,37.5026783,127.1271012
종로문화체육센터,스포츠센터,서울특별시 종로구 사직동 인왕산로1길,에너지 회복; 스트레스 해소,37.5754588,126.9649064
키움홈구장,프로야구경기장,서울특별시 구로구 고척동 경인로,에너지 회복; 스트레스 해소,37.4975857,126.8637132
서울월드컵경기장보조경기장,주/보조경기장,서울특별시 마포구 성산동 ,에너지 회복; 스트레스 해소,37.56775,126.90263
천마근린공원축구장,지역축구장,서울특별시 송파구 마천동 성내천로35길,에너지 회복; 스트레스 해소,37.4987117,127.155697
로또당구클럽,당구장,서울특별시 강동구 둔촌동 천호대로,스트레스 해소; 감정 자극,37.5336637,127.1396323
한양당구장,당구장,서울특별시 구로구 구로동 구로동로35길,스트레스 해소; 감정 자극,37.4937521,126.8827132
프로당구클럽,당구장,서울특별시 구로구 구로동 구로동로,스트레스 해소; 감정 자극,37.4860547,126.8855838
RGDMC,헬스/휘트니스,서울특별시 마포구 상암동 월드컵북로,스트레스 해소; 감정 자극,37.5825783,126.8832349
봉프로,당구장,서울특별시 광진구 화양동 능동로,스트레스 해소; 감정 자극,37.5405754,127.0708976
스포캐슬스포츠센터,스포츠센터,서울특별시 송파구 신천동 올림픽로,에너지 회복; 스트레스 해소,37.5146284,127.1018612
엠휘트니스,헬스/휘트니스,서울특별시 강북구 미아동 도봉로,스트레스 해소; 감정 자극,37.6308331,127.024486
서울월드컵경기장인조축구경기장,일반경기장,서울특별시 마포구 성산동 ,에너지 회복; 스트레스 해소,37.56775,126.90263
상암스크린골프존,실내골프/스크린골프,서울특별시 마포구 상암동 월드컵북로,에너지 회복; 스트레스 해소,37.5825783,126.8832349
GR휘트니스,헬스/휘트니스,서울특별시 마포구 상암동 월드컵북로,스트레스 해소; 감정 자극,37.5825783,126.8832349
우리은행체육관,지역실내체육관,서울특별시 성북구 장위동 돌곶이로34길,에너지 회복; 스트레스 해소,37.6165344,127.051189
KTA장충장호테니스장,테니스장,서울특별시 중구 장충동2가 장충단로,에너지 회복; 스트레스 해소,37.5622474,127.0064864
잠실코베튜브눈썰매장,눈썰매장,서울특별시 송파구 잠실동 올림픽로,감정 자극; 스트레스 해소,37.5115211,127.0757714
망원한강공원눈썰매장,눈썰매장,서울특별시 마포구 망원동 ,감정 자극; 스트레스 해소,37.5560241,126.9009751
덕수수영장,일반수영장,서울특별시 중구 정동 덕수궁길,에너지 회복; 안정감,37.568894,126.9742772
살곶이체육공원축구장,지역축구장,서울특별시 성동구 사근동 ,에너지 회복; 스트레스 해소,37.5589948,127.0480281
용마공원용마랜드눈썰매장,눈썰매장,서울특별시 중랑구 망우동 망우로70길,감정 자극; 스트레스 해소,37.5960882,127.1034314
타임스퀘어코오롱스포렉트,헬스/휘트니스,서울특별시 영등포구 영등포동4가 영중로,스트레스 해소; 감정 자극,37.5168714,126.9064614
CSH스포츠몰,스포츠센터,서울특별시 영등포구 여의도동 여의대로,에너지 회복; 스트레스 해소,37.5285149,126.9286196
현대골프,실내골프/스크린골프,서울특별시 영등포구 여의도동 국회대로70길,에너지 회복; 스트레스 해소,37.5292969,126.9202776
언남문화체육센터,지역체육센터,서울특별시 서초구 양재동 동산로13길,에너지 회복; 스트레스 해소,37.4728407,127.0444923
이글스포렉스,실외골프연습장,서울특별시 강남구 대치동 역삼로,에너지 회복; 스트레스 해소,37.5037829,127.0595421
동서골프프라자,실외골프연습장,서울특별시 용산구 청파동1가 청파로,에너지 회복; 스트레스 해소,37.5470902,126.9699215
그린밸리,실내골프/스크린골프,서울특별시 강서구 방화동 방화대로47가길,에너지 회복; 스트레스 해소,37.5773418,126.8135527
세원골프클럽,실내골프/스크린골프,서울특별시 양천구 신월동 화곡로,에너지 회복; 스트레스 해소,37.5395238,126.8276036
제이앤제이스크린골프,실내골프/스크린골프,서울특별시 구로구 오류동 경인로,에너지 회복; 스트레스 해소,37.4911523,126.8298122
시티월드골프,실내골프/스크린골프,서울특별시 구로구 오류동 경인로,에너지 회복; 스트레스 해소,37.4911523,126.8298122
EG스크린골프,실내골프/스크린골프,서울특별시 강서구 화곡동 ,에너지 회복; 스트레스 해소,37.542134,126.8441752
목동골프스토리,실내골프/스크린골프,서울특별시 양천구 신정동 신월로,에너지 회복; 스트레스 해소,37.5213479,126.8521006
오퍼스스크린골프,실내골프/스크린골프,서울특별시 구로구 구로동 구로중앙로,에너지 회복; 스트레스 해소,37.5010998,126.8818877
동아골프,실내골프/스크린골프,서울특별시 강서구 염창동 양천로,에너지 회복; 스트레스 해소,37.5477854,126.8796328
구로스크린골프,실내골프/스크린골프,서울특별시 구로구 구로동 경인로,에너지 회복; 스트레스 해소,37.5003017,126.8758793
JK골프스쿨,실내골프/스크린골프,서울특별시 양천구 목동 목동서로,에너지 회복; 스트레스 해소,37.5358692,126.8768774
그린스포피아,실내골프/스크린골프,서울특별시 양천구 목동 목동동로,에너지 회복; 스트레스 해소,37.5352107,126.8793143
아이엔엔스크린골프,실내골프/스크린골프,서울특별시 마포구 상암동 상암산로1길,에너지 회복; 스트레스 해소,37.5790032,126.8869043
킹스크린골프,실내골프/스크린골프,서울특별시 구로구 신도림동 경인로65길,에너지 회복; 스트레스 해소,37.5093479,126.8857076
씨엘골프아카데미,실내골프/스크린골프,서울특별시 영등포구 문래동3가 선유로,에너지 회복; 스트레스 해소,37.5194314,126.8893618
스카이스크린골프,실내골프/스크린골프,서울특별시 금천구 독산동 시흥대로,에너지 회복; 스트레스 해소,37.4669034,126.8978902
GLG휘트니스센터,헬스/휘트니스,서울특별시 영등포구 양평동4가 선유동2로,스트레스 해소; 감정 자극,37.5300409,126.8948261
대산골프연습장,실내골프/스크린골프,서울특별시 금천구 시흥동 시흥대로,에너지 회복; 스트레스 해소,37.4479738,126.9033279
금천스크린골프,실내골프/스크린골프,서울특별시 금천구 시흥동 시흥대로,에너지 회복; 스트레스 해소,37.4479738,126.9033279
피지에이골프스쿨,실내골프/스크린골프,서울특별시 금천구 시흥동 시흥대로,에너지 회복; 스트레스 해소,37.4479738,126.9033279
퓨어골프아카데미,실내골프/스크린골프,서울특별시 영등포구 영등포동8가 영중로41길,에너지 회복; 스트레스 해소,37.5286645,126.9048911
성산스크린골프존,실내골프/스크린골프,서울특별시 마포구 성산동 월드컵북로,에너지 회복; 스트레스 해소,37.5690037,126.9045248
신아골프스쿨,실내골프/스크린골프,서울특별시 마포구 성산동 월드컵로36길,에너지 회복; 스트레스 해소,37.566925,126.903779
카멜리아스포츠센터,실내골프/스크린골프,서울특별시 금천구 시흥동 금하로,에너지 회복; 스트레스 해소,37.4516854,126.9073247
현대스크린골프,실내골프/스크린골프,서울특별시 동작구 신대방동 여의대방로,에너지 회복; 스트레스 해소,37.4967762,126.9159857
엠파이어리버,실내골프/스크린골프,서울특별시 마포구 합정동 양화로,에너지 회복; 스트레스 해소,37.5494459,126.9136202
갤러리골프스쿨,실내골프/스크린골프,서울특별시 은평구 갈현동 서오릉로,에너지 회복; 스트레스 해소,37.6166188,126.9071802
VR골프연습장,실내골프/스크린골프,서울특별시 은평구 역촌동 연서로,에너지 회복; 스트레스 해소,37.6024408,126.9158238
한마음골프스쿨,실내골프/스크린골프,서울특별시 관악구 신림동 남부순환로,에너지 회복; 스트레스 해소,37.4840758,126.9279131
서교스크린,실내골프/스크린골프,서울특별시 마포구 서교동 월드컵북로7길,에너지 회복; 스트레스 해소,37.5579021,126.9166593
W스크린골프존,실내골프/스크린골프,서울특별시 서대문구 남가좌동 모래내로,에너지 회복; 스트레스 해소,37.5761323,126.9268048
에스디골프클럽,실내골프/스크린골프,서울특별시 마포구 서교동 월드컵북로,에너지 회복; 스트레스 해소,37.5567685,126.9196652
파인골프클럽,실외골프연습장,서울특별시 마포구 합정동 독막로,에너지 회복; 스트레스 해소,37.5484508,126.9158484
보라매스크린골프,실내골프/스크린골프,서울특별시 동작구 신대방동 보라매로5길,에너지 회복; 스트레스 해소,37.4909608,126.9228422
홀인원골프연습장,실외골프연습장,서울특별시 은평구 역촌동 서오릉로,에너지 회복; 스트레스 해소,37.610404,126.9176978
동작II스크린골프,실내골프/스크린골프,서울특별시 동작구 대방동 여의대방로,에너지 회복; 스트레스 해소,37.5077321,126.923499
드림골프연습장,실내골프/스크린골프,서울특별시 관악구 신림동 봉천로,에너지 회복; 스트레스 해소,37.4883952,126.9301212
여의도스크린,실내골프/스크린골프,서울특별시 영등포구 여의도동 국제금융로6길,에너지 회복; 스트레스 해소,37.521872,126.9275525
위너스스크린골프,실내골프/스크린골프,서울특별시 관악구 신림동 신림로,에너지 회복; 스트레스 해소,37.4739083,126.9335176
아일랜드토탈휘트니스,헬스/휘트니스,서울특별시 관악구 신림동 신림로64길,스트레스 해소; 감정 자극,37.4851775,126.931894
비바스크린골프,실내골프/스크린골프,서울특별시 영등포구 여의도동 여의대방로67길,에너지 회복; 스트레스 해소,37.520034,126.9303173
마포스크린골프,실내골프/스크린골프,서울특별시 마포구 구수동 창전로,에너지 회복; 스트레스 해소,37.545109,126.9313812
일레인스포츠,실내골프/스크린골프,서울특별시 영등포구 여의도동 국제금융로,에너지 회복; 스트레스 해소,37.5255491,126.9274753
대호골프스쿨,실내골프/스크린골프,서울특별시 은평구 불광동 불광로,에너지 회복; 스트레스 해소,37.6193448,126.9319202
한독골프연습장,실내골프/스크린골프,서울특별시 서대문구 홍은동 연희로,에너지 회복; 스트레스 해소,37.5911404,126.9407456
필드스토리,실내골프/스크린골프,서울특별시 마포구 용강동 토정로,에너지 회복; 스트레스 해소,37.540795,126.9428921
상도골골프연습장,실내골프/스크린골프,서울특별시 동작구 상도동 양녕로26길,에너지 회복; 스트레스 해소,37.4971266,126.9440442
삼창스크린골프,실내골프/스크린골프,서울특별시 마포구 도화동 마포대로,에너지 회복; 스트레스 해소,37.5367823,126.9418272
공덕스크린,실내골프/스크린골프,서울특별시 마포구 도화동 독막로,에너지 회복; 스트레스 해소,37.5428706,126.9487736
KOHAN스포티지,실내골프/스크린골프,서울특별시 관악구 봉천동 관악로,에너지 회복; 스트레스 해소,37.4812588,126.9527443
시카고스크린골프,실내골프/스크린골프,서울특별시 마포구 아현동 마포대로,에너지 회복; 스트레스 해소,37.55158,126.9556528
로제우스레포츠센터골프연습장,실내골프/스크린골프,서울특별시 종로구 구기동 진흥로,에너지 회복; 스트레스 해소,37.6086262,126.955634
누리온가족건강센터,헬스/휘트니스,서울특별시 서대문구 영천동 독립문로,스트레스 해소; 감정 자극,37.5699403,126.9614259
구기스크린골프연습장,실내골프/스크린골프,서울특별시 종로구 구기동 진흥로,에너지 회복; 스트레스 해소,37.6086262,126.955634
경기골프스쿨,실내골프/스크린골프,서울특별시 서대문구 충정로2가 경기대로,에너지 회복; 스트레스 해소,37.5624361,126.9618463
이수스크린골프,실내골프/스크린골프,서울특별시 동작구 사당동 사당로17길,에너지 회복; 스트레스 해소,37.4849092,126.9734819
동아골프연습장,실내골프/스크린골프,서울특별시 중구 북창동 남대문로1길,에너지 회복; 스트레스 해소,37.5627755,126.9773205
화인골프,실내골프/스크린골프,서울특별시 용산구 이촌동 이촌로,에너지 회복; 스트레스 해소,37.5220444,126.963533
레몬스크린골프,실내골프/스크린골프,서울특별시 종로구 관철동 청계천로,에너지 회복; 스트레스 해소,37.568345,126.989969
김소영골프스쿨,실내골프/스크린골프,서울특별시 서초구 방배동 방배로,에너지 회복; 스트레스 해소,37.4783113,126.9997061
엑스윈스크린골프,실내골프/스크린골프,서울특별시 중구 저동2가 수표로,에너지 회복; 스트레스 해소,37.5641048,126.990129
스크린파크,실내골프/스크린골프,서울특별시 서초구 방배동 방배로,에너지 회복; 스트레스 해소,37.4783113,126.9997061
비쥬얼테크닉스,실내골프/스크린골프,서울특별시 중구 을지로3가 을지로,에너지 회복; 스트레스 해소,37.5668018,127.0001915
하나스크린골프,실내골프/스크린골프,서울특별시 서초구 방배동 방배로,에너지 회복; 스트레스 해소,37.4783113,126.9997061
수남스크린골프,실내골프/스크린골프,서울특별시 중구 인현동2가 퇴계로41길,에너지 회복; 스트레스 해소,37.5630246,126.9961343
이지골프클리닉,실내골프/스크린골프,서울특별시 서초구 방배동 방배로8길,에너지 회복; 스트레스 해소,37.4794981,126.9997398
코리아스크린골프,실내골프/스크린골프,서울특별시 중구 주교동 청계천로,에너지 회복; 스트레스 해소,37.568923,126.9996513
에이스골프연습장,실내골프/스크린골프,서울특별시 서초구 방배동 방배로,에너지 회복; 스트레스 해소,37.4783113,126.9997061
대호골프연습장,실내골프/스크린골프,서울특별시 종로구 연지동 김상옥로,에너지 회복; 스트레스 해소,37.5732512,127.0012494
풀스윙,실내골프/스크린골프,서울특별시 중구 오장동 동호로33길,에너지 회복; 스트레스 해소,37.5654058,127.0006531
한경스포츠클럽골프연습장,실내골프/스크린골프,서울특별시 서초구 반포동 신반포로,에너지 회복; 스트레스 해소,37.5044399,126.9996177
한남스포렉스,실내골프/스크린골프,서울특별시 용산구 한남동 독서당로,에너지 회복; 스트레스 해소,37.5331534,127.0072808
남산타운골프연습장,실내골프/스크린골프,서울특별시 중구 신당동 다산로,에너지 회복; 스트레스 해소,37.5627173,127.01522
4D스크린골프,실내골프/스크린골프,서울특별시 서초구 서초동 서초대로,에너지 회복; 스트레스 해소,37.4943665,127.0161747
레포세움,실내골프/스크린골프,서울특별시 서초구 서초동 서초중앙로,에너지 회복; 스트레스 해소,37.4875623,127.0147933
맨하탄골프존,실내골프/스크린골프,서울특별시 중구 신당동 마장로1길,에너지 회복; 스트레스 해소,37.5687305,127.0122583
충무스크린,실내골프/스크린골프,서울특별시 중구 신당동 퇴계로73가길,에너지 회복; 스트레스 해소,37.5667214,127.0133773
고산자로,실내골프/스크린골프,서울특별시 서초구 서초동 서초중앙로,에너지 회복; 스트레스 해소,37.4875623,127.0147933
파워골프아카데미,실내골프/스크린골프,서울특별시 서초구 서초동 서초중앙로,에너지 회복; 스트레스 해소,37.4875623,127.0147933
서초리얼스크린골프,실내골프/스크린골프,서울특별시 서초구 서초동 서초중앙로,에너지 회복; 스트레스 해소,37.4875623,127.0147933
WIN스크린,실내골프/스크린골프,서울특별시 서초구 서초동 서초중앙로,에너지 회복; 스트레스 해소,37.4875623,127.0147933
교대스크린골프,실내골프/스크린골프,서울특별시 서초구 서초동 서초대로,에너지 회복; 스트레스 해소,37.4943665,127.0161747
온그린골프앤스크린,실내골프/스크린골프,서울특별시 성동구 옥수동 한림말길,에너지 회복; 스트레스 해소,37.540412,127.0133075
비앤비스크린골프,실내골프/스크린골프,서울특별시 성북구 동선동4가 동소문로,에너지 회복; 스트레스 해소,37.5945874,127.0192647
월드골프스크린,실내골프/스크린골프,서울특별시 성동구 금호동4가 독서당로,에너지 회복; 스트레스 해소,37.5457037,127.0174186
골프존24시스크린골프,실내골프/스크린골프,서울특별시 강북구 번동 덕릉로,에너지 회복; 스트레스 해소,37.6348601,127.0299772
우정휘트니스,헬스/휘트니스,서울특별시 서초구 서초동 강남대로,스트레스 해소; 감정 자극,37.500088,127.0262063
스포라이프,실내골프/스크린골프,서울특별시 강남구 논현동 논현로,에너지 회복; 스트레스 해소,37.5181326,127.0287585
렉스피트니스,헬스/휘트니스,서울특별시 성동구 행당동 왕십리로,스트레스 해소; 감정 자극,37.5585868,127.0379182
제이탑휘트니스클럽,헬스/휘트니스,서울특별시 강남구 도곡동 남부순환로,스트레스 해소; 감정 자극,37.4852848,127.0389229
한양골프,실내골프/스크린골프,서울특별시 강남구 신사동 압구정로,에너지 회복; 스트레스 해소,37.5236257,127.0215285
아이스크린골프,실내골프/스크린골프,서울특별시 강남구 도곡동 도곡로,에너지 회복; 스트레스 해소,37.4932782,127.0437644
대림골프,실내골프/스크린골프,서울특별시 성동구 응봉동 고산자로,에너지 회복; 스트레스 해소,37.5505727,127.035668
더핀스크린골프,실내골프/스크린골프,서울특별시 강남구 역삼동 논현로,에너지 회복; 스트레스 해소,37.498287,127.0381392
제이투에스,실내골프/스크린골프,서울특별시 강남구 도곡동 도곡로,에너지 회복; 스트레스 해소,37.4932782,127.0437644
드림골프스토리,실내골프/스크린골프,서울특별시 강북구 번동 오현로,에너지 회복; 스트레스 해소,37.6272137,127.0372433
도곡스크린골프,실내골프/스크린골프,서울특별시 강남구 도곡동 도곡로,에너지 회복; 스트레스 해소,37.4932782,127.0437644
AT스크린골프,실내골프/스크린골프,서울특별시 서초구 양재동 강남대로6길,에너지 회복; 스트레스 해소,37.4669866,127.0430602
양재제일골프연습장,실내골프/스크린골프,서울특별시 서초구 양재동 마방로,에너지 회복; 스트레스 해소,37.4757557,127.0417177
VR골프,실내골프/스크린골프,서울특별시 강남구 삼성동 학동로,에너지 회복; 스트레스 해소,37.5193563,127.0535902
상록스포렉스,실내골프/스크린골프,서울특별시 강남구 역삼동 언주로,에너지 회복; 스트레스 해소,37.4963919,127.0458068
강남스크린골프,실내골프/스크린골프,서울특별시 강남구 역삼동 언주로86길,에너지 회복; 스트레스 해소,37.5026188,127.0462544
휴스크린골프,실내골프/스크린골프,서울특별시 강남구 역삼동 테헤란로44길,에너지 회복; 스트레스 해소,37.5020012,127.0453325
제네시스휘트니스,헬스/휘트니스,서울특별시 강남구 역삼동 테헤란로48길,스트레스 해소; 감정 자극,37.5029974,127.0459168
워터파크골프연습장,실내골프/스크린골프,서울특별시 성동구 성수동1가 왕십리로,에너지 회복; 스트레스 해소,37.5397618,127.04374
역삼아이파크스크린,실내골프/스크린골프,서울특별시 강남구 역삼동 역삼로,에너지 회복; 스트레스 해소,37.4995545,127.0478452
청담스크린골프,실내골프/스크린골프,서울특별시 강남구 청담동 학동로,에너지 회복; 스트레스 해소,37.5181087,127.0457549
골든메카스크린골프,실내골프/스크린골프,서울특별시 동대문구 답십리동 천호대로69길,에너지 회복; 스트레스 해소,37.56935,127.0523585
굿모닝골프스쿨,실내골프/스크린골프,서울특별시 성동구 성수동2가 뚝섬로,에너지 회복; 스트레스 해소,37.5380483,127.0579596
씨티스크린골프,실내골프/스크린골프,서울특별시 강남구 대치동 도곡로,에너지 회복; 스트레스 해소,37.5001811,127.0648705
테헤란스크린골프,실내골프/스크린골프,서울특별시 강남구 삼성동 테헤란로,에너지 회복; 스트레스 해소,37.5082495,127.060653
VR골프아이골프점,실내골프/스크린골프,서울특별시 강남구 삼성동 학동로,에너지 회복; 스트레스 해소,37.5193563,127.0535902
성동코레월드,실내골프/스크린골프,서울특별시 성동구 성수동2가 뚝섬로,에너지 회복; 스트레스 해소,37.5380483,127.0579596
언더파스크린골프,실내골프/스크린골프,서울특별시 동대문구 전농동 사가정로,에너지 회복; 스트레스 해소,37.5747671,127.0536195
은마스크린골프,실내골프/스크린골프,서울특별시 강남구 대치동 도곡로,에너지 회복; 스트레스 해소,37.5001811,127.0648705
대치스크린골프,실내골프/스크린골프,서울특별시 강남구 대치동 도곡로,에너지 회복; 스트레스 해소,37.5001811,127.0648705
매경쇼,실내골프/스크린골프,서울특별시 강남구 대치동 영동대로,에너지 회복; 스트레스 해소,37.5018574,127.0671243
웰빙라이프휘트니스,헬스/휘트니스,서울특별시 노원구 상계동 상계로,스트레스 해소; 감정 자극,37.6614689,127.0739292
서울레저한강골프,실내골프/스크린골프,서울특별시 광진구 자양동 능동로,에너지 회복; 스트레스 해소,37.5375517,127.0696332
휘경골프연습장,실내골프/스크린골프,서울특별시 동대문구 휘경동 망우로,에너지 회복; 스트레스 해소,37.5899957,127.0624325
태초골프스쿨,실내골프/스크린골프,서울특별시 광진구 자양동 뚝섬로35길,에너지 회복; 스트레스 해소,37.535875,127.0706455
이지골프클럽,실내골프/스크린골프,서울특별시 노원구 상계동 한글비석로,에너지 회복; 스트레스 해소,37.6604332,127.0719118
멀리건골프스쿨,실내골프/스크린골프,서울특별시 노원구 하계동 공릉로63길,에너지 회복; 스트레스 해소,37.6350362,127.0705813
클럽골프존,실내골프/스크린골프,서울특별시 동대문구 장안동 장한로18길,에너지 회복; 스트레스 해소,37.567135,127.0716446
그린골프,실내골프/스크린골프,서울특별시 노원구 하계동 노원로,에너지 회복; 스트레스 해소,37.6381375,127.0770494
비젼골프클럽,실내골프/스크린골프,서울특별시 노원구 중계동 한글비석로8길,에너지 회복; 스트레스 해소,37.6480656,127.0786049
OK스크린골프,실내골프/스크린골프,서울특별시 광진구 자양동 아차산로,에너지 회복; 스트레스 해소,37.5388422,127.0738801
상봉골프스토리,실내골프/스크린골프,서울특별시 중랑구 상봉동 상봉중앙로8길,에너지 회복; 스트레스 해소,37.6031709,127.0909283
스포트론,실내골프/스크린골프,서울특별시 송파구 석촌동 석촌호수로,에너지 회복; 스트레스 해소,37.5067677,127.1001782
지앤디골프아카데미,실내골프/스크린골프,서울특별시 송파구 신천동 올림픽로35길,에너지 회복; 스트레스 해소,37.5169572,127.1006557
세종스크린골프,실내골프/스크린골프,서울특별시 강남구 수서동 광평로51길,에너지 회복; 스트레스 해소,37.4900792,127.1014586
강동스크린골프,실내골프/스크린골프,서울특별시 강동구 성내동 성내로6길,에너지 회복; 스트레스 해소,37.5284009,127.1223568
포인트골프클리닉,실내골프/스크린골프,서울특별시 강동구 성내동 성내로,에너지 회복; 스트레스 해소,37.5287555,127.1254049
골프인파라다이스,실내골프/스크린골프,서울특별시 송파구 오금동 중대로25길,에너지 회복; 스트레스 해소,37.5030292,127.1275069
버디스크린골프존,실내골프/스크린골프,서울특별시 송파구 오금동 위례성대로,에너지 회복; 스트레스 해소,37.5102891,127.1314015
로진스크린골프,실내골프/스크린골프,서울특별시 송파구 오금동 중대로,에너지 회복; 스트레스 해소,37.503889,127.1299629
웰빙휘트니스프라자,헬스/휘트니스,서울특별시 강동구 천호동 구천면로,스트레스 해소; 감정 자극,37.5429218,127.1192777
성심스크린골프,실내골프/스크린골프,서울특별시 강동구 길동 천호대로,에너지 회복; 스트레스 해소,37.5372256,127.1503731
마스터골프연습장,실내골프/스크린골프,서울특별시 송파구 오금동 동남로,에너지 회복; 스트레스 해소,37.5056449,127.1391853
노블휘트니스,헬스/휘트니스,서울특별시 강동구 길동 양재대로,스트레스 해소; 감정 자극,37.5375025,127.1398729
그린파크골프연습장,실내골프/스크린골프,서울특별시 강동구 명일동 명일로,에너지 회복; 스트레스 해소,37.5519039,127.1497771
명일스크린골프,실내골프/스크린골프,서울특별시 강동구 명일동 동남로,에너지 회복; 스트레스 해소,37.5432983,127.1544955
잉어이야기,실내낚시터,서울특별시 관악구 신림동 남부순환로,안정감; 감정 정화,37.4840758,126.9279131
조이골프,실내골프/스크린골프,서울특별시 서초구 서초동 효령로,에너지 회복; 스트레스 해소,37.4864209,127.0214463
동원스크린골프,실내골프/스크린골프,서울특별시 중구 남창동 남대문로,에너지 회복; 스트레스 해소,37.5614243,126.980168
오클랜드골프,실내골프/스크린골프,서울특별시 송파구 삼전동 석촌호수로,에너지 회복; 스트레스 해소,37.5071463,127.0933544
역발산골프,실내골프/스크린골프,서울특별시 광진구 화양동 능동로13길,에너지 회복; 스트레스 해소,37.5443871,127.0695053
서서울스크린골프,실내골프/스크린골프,서울특별시 강서구 내발산동 우장산로,에너지 회복; 스트레스 해소,37.5544243,126.8408943
에딘골프,실내골프/스크린골프,서울특별시 강동구 명일동 구천면로,에너지 회복; 스트레스 해소,37.549148,127.1509946
로얄스크린골프,실내골프/스크린골프,서울특별시 송파구 방이동 백제고분로,에너지 회복; 스트레스 해소,37.5133798,127.1141211
아차산체육공원아차산배수지축구장,지역축구장,서울특별시 광진구 구의동 천호대로,에너지 회복; 스트레스 해소,37.5488105,127.0931781
현대골프스쿨,실내골프/스크린골프,서울특별시 구로구 개봉동 개봉로20길,에너지 회복; 스트레스 해소,37.4927802,126.8599687
월드컵스포랜드,실내골프/스크린골프,서울특별시 마포구 성산동 월드컵로,에너지 회복; 스트레스 해소,37.5664374,126.8963377
방배멤피스골프스쿨,실내골프/스크린골프,서울특별시 서초구 방배동 방배로,에너지 회복; 스트레스 해소,37.4783113,126.9997061
서경스크린골프,실내골프/스크린골프,서울특별시 종로구 숭인동 종로,에너지 회복; 스트레스 해소,37.5736453,127.0165769
매니아당구클럽,당구장,서울특별시 송파구 방이동 올림픽로32길,스트레스 해소; 감정 자극,37.5131686,127.110086
탑당구클럽,당구장,서울특별시 송파구 방이동 올림픽로32길,스트레스 해소; 감정 자극,37.5131686,127.110086
나인짐휘트니스,헬스/휘트니스,서울특별시 관악구 봉천동 관악로,스트레스 해소; 감정 자극,37.4812588,126.9527443
스포파크,헬스/휘트니스,서울특별시 금천구 가산동 가산디지털1로,스트레스 해소; 감정 자극,37.4776652,126.8827945
한울림탁구클럽,탁구장,서울특별시 강북구 미아동 도봉로,에너지 회복; 스트레스 해소,37.6227994,127.0275119
FC서울홈구장,프로축구장,서울특별시 마포구 성산동 월드컵로,에너지 회복; 스트레스 해소,37.5664374,126.8963377
별당구장,당구장,서울특별시 마포구 상암동 월드컵북로48길,스트레스 해소; 감정 자극,37.5772758,126.895252
웰짐휘트니스,헬스/휘트니스,서울특별시 성동구 금호동3가 동호로,스트레스 해소; 감정 자극,37.5490133,127.0154125
골드당구장,당구장,서울특별시 관악구 봉천동 남부순환로,스트레스 해소; 감정 자극,37.4814856,126.9511662
월드컵파크골프장,실외골프연습장,서울특별시 마포구 상암동 하늘공원로,에너지 회복; 스트레스 해소,37.5734326,126.8833088
휘트니스존,헬스/휘트니스,서울특별시 송파구 삼전동 삼학사로,스트레스 해소; 감정 자극,37.502821,127.0970135
아메리카스포츠,헬스/휘트니스,서울특별시 중구 소공동 남대문로7길,스트레스 해소; 감정 자극,37.5637679,126.9816538
우노짐코리아,지역체육센터,서울특별시 중구 장충동1가 장충단로,에너지 회복; 스트레스 해소,37.5622474,127.0064864
조이휘트니스,헬스/휘트니스,서울특별시 구로구 구로동 구로중앙로,스트레스 해소; 감정 자극,37.5010998,126.8818877
렉시짐,헬스/휘트니스,서울특별시 강동구 길동 진황도로,스트레스 해소; 감정 자극,37.5344914,127.1398536
일자산제1체육관,스포츠센터,서울특별시 강동구 둔촌동 동남로,에너지 회복; 스트레스 해소,37.5323074,127.1499941
어린이대공원어린이회관눈썰매장,눈썰매장,서울특별시 광진구 능동 광나루로,감정 자극; 스트레스 해소,37.5453803,127.0807122
스포맥스,헬스/휘트니스,서울특별시 송파구 가락동 송파대로28길,스트레스 해소; 감정 자극,37.4945055,127.1204267
K가락휘트니스,헬스/휘트니스,서울특별시 송파구 가락동 송파대로30길,스트레스 해소; 감정 자극,37.4952216,127.1198198
스포아미휘트니스,헬스/휘트니스,서울특별시 강남구 수서동 광평로,스트레스 해소; 감정 자극,37.4858354,127.0981081
포레스트휘트니스,헬스/휘트니스,서울특별시 중랑구 망우동 용마산로115길,스트레스 해소; 감정 자극,37.5985991,127.0977219
아이파크휘트니센터,헬스/휘트니스,서울특별시 강서구 등촌동 등촌로,스트레스 해소; 감정 자극,37.5405641,126.8637367
제일당구장,당구장,서울특별시 강남구 삼성동 봉은사로,스트레스 해소; 감정 자극,37.5136222,127.0567549
이훈의에너지짐,헬스/휘트니스,서울특별시 은평구 대조동 불광로,스트레스 해소; 감정 자극,37.6099941,126.9283912
대성프라자수영장,일반수영장,서울특별시 성북구 석관동 화랑로,에너지 회복; 안정감,37.6115128,127.0595792
뉴타운수영장,일반수영장,서울특별시 성동구 용답동 천호대로,에너지 회복; 안정감,37.5718615,127.0440633
신석수영장,일반수영장,서울특별시 마포구 신수동 대흥로,에너지 회복; 안정감,37.5444223,126.9387921
반포한강공원반포수상스포츠,수상스포츠,서울특별시 용산구 용산동6가 ,감정 자극; 스트레스 해소,37.52352,126.9858
잠원수상레저,수상스포츠,서울특별시 서초구 잠원동 잠원로,감정 자극; 스트레스 해소,37.5167989,127.0101286
상암당구장,당구장,서울특별시 마포구 상암동 월드컵북로44길,스트레스 해소; 감정 자극,37.5766433,126.8950385
코끼리당구장,당구장,서울특별시 송파구 방이동 오금로11길,스트레스 해소; 감정 자극,37.5154261,127.1110745
보글당구장,당구장,서울특별시 송파구 방이동 올림픽로32길,스트레스 해소; 감정 자극,37.5131686,127.110086
우리당구장,당구장,서울특별시 송파구 방이동 올림픽로32길,스트레스 해소; 감정 자극,37.5131686,127.110086
아탑골프헬스,헬스/휘트니스,서울특별시 송파구 방이동 오금로11길,스트레스 해소; 감정 자극,37.5154261,127.1110745
빅볼당구장,당구장,서울특별시 송파구 방이동 오금로11길,스트레스 해소; 감정 자극,37.5154261,127.1110745
예준당구클럽,당구장,서울특별시 송파구 방이동 오금로11길,스트레스 해소; 감정 자극,37.5154261,127.1110745
휴당구장,당구장,서울특별시 송파구 방이동 올림픽로32길,스트레스 해소; 감정 자극,37.5131686,127.110086
마루당구장,당구장,서울특별시 송파구 방이동 올림픽로32길,스트레스 해소; 감정 자극,37.5131686,127.110086
황제당구장,당구장,서울특별시 강남구 신사동 강남대로,스트레스 해소; 감정 자극,37.5219895,127.0175715
FROMNY,헬스/휘트니스,서울특별시 강남구 신사동 가로수길,스트레스 해소; 감정 자극,37.521084,127.0230203
JINSDIEHARD,헬스/휘트니스,서울특별시 강남구 신사동 가로수길,스트레스 해소; 감정 자극,37.521084,127.0230203
드래곤당구장,당구장,서울특별시 강남구 신사동 강남대로152길,스트레스 해소; 감정 자극,37.5187492,127.0241275
신의손,당구장,서울특별시 송파구 가락동 중대로9길,스트레스 해소; 감정 자극,37.4983413,127.1192373
제우스당구장,당구장,서울특별시 강남구 신사동 강남대로152길,스트레스 해소; 감정 자극,37.5187492,127.0241275
대영당구장,당구장,서울특별시 강남구 신사동 도산대로1길,스트레스 해소; 감정 자극,37.5194308,127.019472
POOL당구장,당구장,서울특별시 강남구 신사동 압구정로2길,스트레스 해소; 감정 자극,37.5196855,127.0204004
학생체육관강서분관,지역실내체육관,서울특별시 양천구 신월동 월정로,에너지 회복; 스트레스 해소,37.532924,126.8363283
아이휘트니스,헬스/휘트니스,서울특별시 서초구 서초동 서초대로,스트레스 해소; 감정 자극,37.4943665,127.0161747
CN스포렉스,헬스/휘트니스,서울특별시 서초구 반포동 사평대로,스트레스 해소; 감정 자극,37.5014683,127.0018479
서울마리나,요트장,서울특별시 영등포구 여의도동 여의서로,스트레스 해소; 감정 자극,37.5336861,126.9132665
트라움앤24,헬스/휘트니스,서울특별시 강남구 역삼동 테헤란로,스트레스 해소; 감정 자극,37.5034432,127.0458432
티샷골프연습장,실외골프연습장,서울특별시 강서구 등촌동 등촌로,에너지 회복; 스트레스 해소,37.5405641,126.8637367
광진구배드민턴전용체육관,지역체육센터,서울특별시 광진구 광장동 천호대로140길,에너지 회복; 스트레스 해소,37.5444482,127.100461
모비딕스크린골프,실내골프/스크린골프,서울특별시 강남구 역삼동 테헤란로,에너지 회복; 스트레스 해소,37.5034432,127.0458432
B앤B휘트니스,헬스/휘트니스,서울특별시 강남구 논현동 학동로,스트레스 해소; 감정 자극,37.5120112,127.0241112
태종스크린골프,실내골프/스크린골프,서울특별시 성동구 마장동 마장로,에너지 회복; 스트레스 해소,37.5660242,127.037052
이글스크린골프,실내골프/스크린골프,서울특별시 구로구 신도림동 구로중앙로,에너지 회복; 스트레스 해소,37.5042759,126.8782905
더블휘트니스클럽,헬스/휘트니스,서울특별시 강북구 수유동 인수봉로,스트레스 해소; 감정 자극,37.6345746,127.0133352
코리아짐휘트니스,헬스/휘트니스,서울특별시 성북구 동선동1가 보문로34길,스트레스 해소; 감정 자극,37.5909355,127.0191774
레드휘트니스,헬스/휘트니스,서울특별시 은평구 갈현동 서오릉로,스트레스 해소; 감정 자극,37.6166188,126.9071802
맥스휘트니스센터,헬스/휘트니스,서울특별시 종로구 신영동 진흥로,스트레스 해소; 감정 자극,37.6038216,126.9615237
68골프클럽,실내골프/스크린골프,서울특별시 송파구 마천동 마천로,에너지 회복; 스트레스 해소,37.5005892,127.1434876
골프존,실내골프/스크린골프,서울특별시 강북구 미아동 도봉로,에너지 회복; 스트레스 해소,37.6227994,127.0275119
강산골프,실내골프/스크린골프,서울특별시 은평구 구산동 서오릉로,에너지 회복; 스트레스 해소,37.6129309,126.9137875
M2골프앤헬스크럽,실내골프/스크린골프,서울특별시 강남구 논현동 논현로,에너지 회복; 스트레스 해소,37.5181326,127.0287585
파72스크린골프,실내골프/스크린골프,서울특별시 강동구 성내동 강동대로,에너지 회복; 스트레스 해소,37.5269944,127.1215874
HK골프,실내골프/스크린골프,서울특별시 노원구 중계동 중계로,에너지 회복; 스트레스 해소,37.6413977,127.0832957
저스트골프,실내골프/스크린골프,서울특별시 서초구 서초동 서초대로64길,에너지 회복; 스트레스 해소,37.4920147,127.0218635
국제골프스쿨,실내골프/스크린골프,서울특별시 서초구 서초동 효령로60길,에너지 회복; 스트레스 해소,37.4846446,127.018672
희망스크린골프존,실내골프/스크린골프,서울특별시 관악구 봉천동 남부순환로,에너지 회복; 스트레스 해소,37.4814856,126.9511662
백호스크린골프,실내골프/스크린골프,서울특별시 강동구 길동 천중로40길,에너지 회복; 스트레스 해소,37.539284,127.1382835
성광골프연습장,실내골프/스크린골프,서울특별시 구로구 신도림동 신도림로19길,에너지 회복; 스트레스 해소,37.5119938,126.8824423
에이스골프,실내골프/스크린골프,서울특별시 강남구 역삼동 논현로,에너지 회복; 스트레스 해소,37.498287,127.0381392
성대볼링센터,볼링장,서울특별시 동작구 상도동 상도로,스트레스 해소; 감정 자극,37.5030223,126.9360156
두산골프아카데미,실내골프/스크린골프,서울특별시 관악구 봉천동 봉천로,에너지 회복; 스트레스 해소,37.4826787,126.9495443
한일골프스쿨,실내골프/스크린골프,서울특별시 강북구 수유동 삼양로,에너지 회복; 스트레스 해소,37.6353867,127.0170277
오렌지휘트니스,헬스/휘트니스,서울특별시 구로구 고척동 경인로,스트레스 해소; 감정 자극,37.4975857,126.8637132
SM스크린골프,실내골프/스크린골프,서울특별시 강남구 일원동 일원로,에너지 회복; 스트레스 해소,37.4877698,127.0822928
매니아,당구장,서울특별시 송파구 석촌동 삼학사로12길,스트레스 해소; 감정 자극,37.5015567,127.0978406
삼손헬스크럽,헬스/휘트니스,서울특별시 송파구 삼전동 백제고분로,스트레스 해소; 감정 자극,37.5025616,127.0991797
올림픽헬스,헬스/휘트니스,서울특별시 강동구 성내동 강동대로,스트레스 해소; 감정 자극,37.5269944,127.1215874
필당구장,당구장,서울특별시 송파구 석촌동 가락로,스트레스 해소; 감정 자극,37.5005742,127.1070344
경희휘트니스클럽,헬스/휘트니스,서울특별시 송파구 송파동 가락로,스트레스 해소; 감정 자극,37.504081,127.1141497
르네상스당구클럽,당구장,서울특별시 송파구 가락동 중대로9길,스트레스 해소; 감정 자극,37.4983413,127.1192373
BMW당구클럽,당구장,서울특별시 송파구 가락동 중대로9길,스트레스 해소; 감정 자극,37.4983413,127.1192373
태산당구클럽,당구장,서울특별시 송파구 가락동 송이로20길,스트레스 해소; 감정 자극,37.4959522,127.1203472
아트,당구장,서울특별시 송파구 오금동 마천로15길,스트레스 해소; 감정 자극,37.5054963,127.1350002
현대남여헬스,헬스/휘트니스,서울특별시 송파구 오금동 동남로,스트레스 해소; 감정 자극,37.5056449,127.1391853
퀸스크린골프,실내골프/스크린골프,서울특별시 송파구 오금동 마천로,에너지 회복; 스트레스 해소,37.5073421,127.1289918
커브스,헬스/휘트니스,서울특별시 송파구 오금동 마천로,스트레스 해소; 감정 자극,37.5073421,127.1289918
한솔골프,실내골프/스크린골프,서울특별시 강남구 일원동 광평로10길,에너지 회복; 스트레스 해소,37.481006,127.0817113
삼원휘트니스,헬스/휘트니스,서울특별시 용산구 이태원동 회나무로26길,스트레스 해소; 감정 자극,37.5391946,126.9907369
런던클럽,당구장,서울특별시 강동구 천호동 올림픽로,스트레스 해소; 감정 자극,37.549006,127.1271375
청풍무관,지역실내체육관,서울특별시 강동구 천호동 상암로,에너지 회복; 스트레스 해소,37.5475395,127.1321945
해동검도,지역실내체육관,서울특별시 강동구 천호동 구천면로,에너지 회복; 스트레스 해소,37.5429218,127.1192777
동포권투체육관,지역실내체육관,서울특별시 강동구 천호동 올림픽로,에너지 회복; 스트레스 해소,37.549006,127.1271375
CURVES,헬스/휘트니스,서울특별시 강동구 암사동 올림픽로,스트레스 해소; 감정 자극,37.5585235,127.1306295
당구매니아,당구장,서울특별시 강동구 명일동 구천면로,스트레스 해소; 감정 자극,37.549148,127.1509946
명일휘트니스,헬스/휘트니스,서울특별시 강동구 명일동 구천면로,스트레스 해소; 감정 자극,37.549148,127.1509946
러쉬스포츠센터,헬스/휘트니스,서울특별시 서초구 양재동 마방로10길,스트레스 해소; 감정 자극,37.4749998,127.0444973
희망당구장,당구장,서울특별시 중구 서소문동 서소문로,스트레스 해소; 감정 자극,37.5622459,126.9702654
동양볼링장,볼링장,서울특별시 영등포구 문래동5가 선유로,스트레스 해소; 감정 자극,37.5194314,126.8893618
럭셔리스크린골프,실내골프/스크린골프,서울특별시 강남구 청담동 도산대로,에너지 회복; 스트레스 해소,37.5244899,127.0502131
서림당구장,당구장,서울특별시 영등포구 당산동3가 당산로,스트레스 해소; 감정 자극,37.5225075,126.8959049
CPS당구장,당구장,서울특별시 강남구 신사동 언주로172길,스트레스 해소; 감정 자극,37.5272393,127.0367434
합기도검무관,지역실내체육관,서울특별시 서대문구 홍은동 ,에너지 회복; 스트레스 해소,37.5933933,126.9375964
북아현체육관,지역실내체육관,서울특별시 서대문구 북아현동 북아현로,에너지 회복; 스트레스 해소,37.563293,126.9547724
파맥스스포츠,스포츠센터,서울특별시 서초구 방배동 방배로,에너지 회복; 스트레스 해소,37.4783113,126.9997061
종로당구장,당구장,서울특별시 종로구 종로5가 종로,스트레스 해소; 감정 자극,37.5714092,127.0078154
에버레저,요트장,서울특별시 광진구 광장동 아차산로,스트레스 해소; 감정 자극,37.547414,127.1064441
스포짐,헬스/휘트니스,서울특별시 은평구 역촌동 진흥로1길,스트레스 해소; 감정 자극,37.603298,126.919439
큐당구장,당구장,서울특별시 성동구 성수동2가 연무장길,스트레스 해소; 감정 자극,37.5411759,127.0595267
캥거루당구장,당구장,서울특별시 성동구 송정동 동일로,스트레스 해소; 감정 자극,37.5516914,127.0687294
광무체육관,지역실내체육관,서울특별시 동작구 노량진동 장승배기로,에너지 회복; 스트레스 해소,37.5093471,126.9401389
특실당구장,당구장,서울특별시 동대문구 휘경동 망우로,스트레스 해소; 감정 자극,37.5899957,127.0624325
벤츠스크린골프,실내골프/스크린골프,서울특별시 송파구 오금동 문정로,에너지 회복; 스트레스 해소,37.4992673,127.1408258
SK스크린골프,실내골프/스크린골프,서울특별시 영등포구 문래동3가 문래로,에너지 회복; 스트레스 해소,37.518627,126.8989195
국일관당구클럽,당구장,서울특별시 종로구 관수동 수표로,스트레스 해소; 감정 자극,37.5692537,126.9890922
문용당구장,당구장,서울특별시 송파구 방이동 올림픽로32길,스트레스 해소; 감정 자극,37.5131686,127.110086
코오롱당구장,당구장,서울특별시 영등포구 당산동1가 영등포로28길,스트레스 해소; 감정 자극,37.5197933,126.8986516
그린테니스,테니스장,서울특별시 서초구 내곡동 ,에너지 회복; 스트레스 해소,37.4534615,127.0664442
서울볼링장,볼링장,서울특별시 성북구 석관동 화랑로,스트레스 해소; 감정 자극,37.6115128,127.0595792
대성스포츠센타,헬스/휘트니스,서울특별시 성북구 석관동 화랑로,스트레스 해소; 감정 자극,37.6115128,127.0595792
트윈당구장,당구장,서울특별시 서초구 양재동 마방로10길,스트레스 해소; 감정 자극,37.4749998,127.0444973
하나탁구센터,탁구장,서울특별시 송파구 거여동 거마로,에너지 회복; 스트레스 해소,37.497157,127.1463034
세븐당구클럽,당구장,서울특별시 광진구 군자동 동일로60길,스트레스 해소; 감정 자극,37.5580647,127.0750569
서울당구장,당구장,서울특별시 동대문구 답십리동 황물로,스트레스 해소; 감정 자극,37.5720187,127.048347
티엔디당구장,당구장,서울특별시 종로구 관철동 삼일대로,스트레스 해소; 감정 자극,37.5711546,126.987675
현대당구장,당구장,서울특별시 동대문구 장안동 한천로24길,스트레스 해소; 감정 자극,37.570419,127.0669539
양헬스클럽,헬스/휘트니스,서울특별시 영등포구 영등포동6가 영등포로35길,스트레스 해소; 감정 자극,37.5216798,126.9043896
호산스크린골프,실내골프/스크린골프,서울특별시 은평구 증산동 증산로,에너지 회복; 스트레스 해소,37.5796258,126.9050122
한남볼링센터,볼링장,서울특별시 용산구 한남동 한남대로,스트레스 해소; 감정 자극,37.5310578,127.0095218
서광,실내골프/스크린골프,서울특별시 마포구 신수동 광성로,에너지 회복; 스트레스 해소,37.5507901,126.9331888
극동휘트니스,헬스/휘트니스,서울특별시 서대문구 현저동 독립문공원길,스트레스 해소; 감정 자극,37.5725739,126.957074
신림스포츠,스포츠센터,서울특별시 관악구 신림동 신림로,에너지 회복; 스트레스 해소,37.4739083,126.9335176
은평당구장,당구장,서울특별시 은평구 응암동 응암로,스트레스 해소; 감정 자극,37.5972585,126.9200398
한남2동헬스장,헬스/휘트니스,서울특별시 용산구 한남동 대사관로5길,스트레스 해소; 감정 자극,37.5350647,127.0005936
무교스크린,실내골프/스크린골프,서울특별시 중구 다동 다동길,에너지 회복; 스트레스 해소,37.5677929,126.9809886
레츠키즈,지역실내체육관,서울특별시 성북구 길음동 동소문로,에너지 회복; 스트레스 해소,37.6031858,127.0236174
스퀘어짐,헬스/휘트니스,서울특별시 종로구 숭인동 숭인동길,스트레스 해소; 감정 자극,37.5783171,127.0221981
디엠시스크린골프,실내골프/스크린골프,서울특별시 마포구 상암동 월드컵북로,에너지 회복; 스트레스 해소,37.5825783,126.8832349
명인당구장,당구장,서울특별시 종로구 계동 계동길,스트레스 해소; 감정 자극,37.5773923,126.986818
포이스크린골프,실내골프/스크린골프,서울특별시 강남구 개포동 개포로,에너지 회복; 스트레스 해소,37.489715,127.0695778
시흥당구장,당구장,서울특별시 금천구 시흥동 금하로,스트레스 해소; 감정 자극,37.4516854,126.9073247
금강당구장,당구장,서울특별시 용산구 한강로1가 한강대로62길,스트레스 해소; 감정 자극,37.5325733,126.9738428
주노휘트니스,헬스/휘트니스,서울특별시 송파구 석촌동 송파대로37길,스트레스 해소; 감정 자극,37.5008133,127.1105678
대성당구장,당구장,서울특별시 송파구 석촌동 송파대로37길,스트레스 해소; 감정 자극,37.5008133,127.1105678
푸른헬스피아,헬스/휘트니스,서울특별시 구로구 구로동 가마산로,스트레스 해소; 감정 자극,37.488503,126.8810697
라인헬스아카데미,헬스/휘트니스,서울특별시 중랑구 면목동 용마산로,스트레스 해소; 감정 자극,37.587697,127.095871
한양헬스클럽,헬스/휘트니스,서울특별시 성동구 행당동 왕십리로,스트레스 해소; 감정 자극,37.5590431,127.0378622
황학정,궁도장,서울특별시 종로구 사직동 사직로9길,안정감; 사회적 연결,37.5761741,126.966555
공항동문화체육센터,일반수영장,서울특별시 강서구 공항동 송정로,에너지 회복; 안정감,37.5581086,126.811091
동대문탁구클럽,탁구장,서울특별시 동대문구 이문동 이문로,에너지 회복; 스트레스 해소,37.5942839,127.0595394
한미당구장,당구장,서울특별시 광진구 중곡동 긴고랑로,스트레스 해소; 감정 자극,37.5586572,127.0914059
위너스파크,실내골프/스크린골프,서울특별시 성동구 행당동 왕십리광장로,에너지 회복; 스트레스 해소,37.5588568,127.0387162
복당구장,당구장,서울특별시 종로구 신문로2가 새문안로,스트레스 해소; 감정 자극,37.5700017,126.972033
동영휘트니스클럽,헬스/휘트니스,서울특별시 강남구 역삼동 언주로,스트레스 해소; 감정 자극,37.4963919,127.0458068
에이샵스크린골프,실내골프/스크린골프,서울특별시 관악구 신림동 남부순환로,에너지 회복; 스트레스 해소,37.4842956,126.9298124
JS골프,실내골프/스크린골프,서울특별시 구로구 고척동 경인로,에너지 회복; 스트레스 해소,37.4975857,126.8637132
도토리짐휘트니스센터,헬스/휘트니스,서울특별시 강남구 논현동 논현로,스트레스 해소; 감정 자극,37.5154155,127.0300294
용문체육관,지역실내체육관,서울특별시 성북구 안암동2가 고려대로11길,에너지 회복; 스트레스 해소,37.588005,127.0214041
이글스포츠센터,스포츠센터,서울특별시 서대문구 연희동 성산로17길,에너지 회복; 스트레스 해소,37.5634924,126.9323208
파스칼스크린,실내골프/스크린골프,서울특별시 강북구 번동 덕릉로,에너지 회복; 스트레스 해소,37.6345965,127.0306856
골프프린스스크린골프장,실내골프/스크린골프,서울특별시 송파구 송파동 백제고분로,에너지 회복; 스트레스 해소,37.505458,127.1074538
서원골프스쿨,실내골프/스크린골프,서울특별시 도봉구 도봉동 도봉로181길,에너지 회복; 스트레스 해소,37.6852705,127.0420484
삼원당구장,당구장,서울특별시 영등포구 당산동6가 양평로,스트레스 해소; 감정 자극,37.5388277,126.8911509
샤인스크린골프,실내골프/스크린골프,서울특별시 구로구 오류동 경인로,에너지 회복; 스트레스 해소,37.4911523,126.8298122
허리우드당구장,당구장,서울특별시 강남구 도곡동 도곡로,스트레스 해소; 감정 자극,37.4932782,127.0437644
팔팔당구장,당구장,서울특별시 은평구 수색동 수색로16길,스트레스 해소; 감정 자극,37.5826791,126.8954587
공원스크린골프,실내골프/스크린골프,서울특별시 영등포구 당산동3가 양산로19길,에너지 회복; 스트레스 해소,37.5254965,126.8950827
구슬모아당구장,당구장,서울특별시 용산구 원효로2가 원효로48길,스트레스 해소; 감정 자극,37.5342239,126.9609991
고려체육관,지역실내체육관,서울특별시 은평구 대조동 연서로18가길,에너지 회복; 스트레스 해소,37.6128233,126.9201748
전망대당구장,당구장,서울특별시 관악구 신림동 남부순환로,스트레스 해소; 감정 자극,37.4842956,126.9298124
삼거리당구장,당구장,서울특별시 중구 황학동 퇴계로,스트레스 해소; 감정 자극,37.5656688,127.0220058
블루휘트니스,헬스/휘트니스,서울특별시 관악구 봉천동 봉천로,스트레스 해소; 감정 자극,37.4826787,126.9495443
우정당구장,당구장,서울특별시 성동구 행당동 왕십리로21길,스트레스 해소; 감정 자극,37.5598419,127.0317946
하호휘트니스클럽,헬스/휘트니스,서울특별시 강동구 길동 양재대로124길,스트레스 해소; 감정 자극,37.5417635,127.1462036
대학당구장,당구장,서울특별시 광진구 화양동 아차산로33길,스트레스 해소; 감정 자극,37.5418094,127.0705534
합기도범무관중앙본관,지역실내체육관,서울특별시 성북구 동소문동7가 아리랑로,에너지 회복; 스트레스 해소,37.5976707,127.0149212
그린힐스크린골프,실내골프/스크린골프,서울특별시 금천구 독산동 시흥대로,에너지 회복; 스트레스 해소,37.4684383,126.8980548
커브스봉천클럽,헬스/휘트니스,서울특별시 관악구 봉천동 양녕로,스트레스 해소; 감정 자극,37.485759,126.946929
연당구장,당구장,서울특별시 강남구 신사동 논현로167길,스트레스 해소; 감정 자극,37.5246297,127.0272139
서경석골프존,실내골프/스크린골프,서울특별시 마포구 용강동 대흥로4길,에너지 회복; 스트레스 해소,37.5416103,126.9391829
아시아나스크린골프,실내골프/스크린골프,서울특별시 영등포구 대림동 대림로,에너지 회복; 스트레스 해소,37.5019187,126.8968464
미주스포츠센터,스포츠센터,서울특별시 영등포구 문래동6가 선유로,에너지 회복; 스트레스 해소,37.5194314,126.8893618
명보헬스피아,헬스/휘트니스,서울특별시 중구 인현동1가 마른내로,스트레스 해소; 감정 자극,37.5646848,126.9948704
세종탁구장,탁구장,서울특별시 마포구 도화동 삼개로5길,에너지 회복; 스트레스 해소,37.537995,126.9481947
청룡탁구장,탁구장,서울특별시 종로구 종로2가 종로,에너지 회복; 스트레스 해소,37.5701732,126.987742
엠애슬레틱스퀘어,헬스/휘트니스,서울특별시 강남구 청담동 선릉로,스트레스 해소; 감정 자극,37.52011,127.0402188
에덴에있는휘트니스클럽,헬스/휘트니스,서울특별시 성동구 행당동 고산자로,스트레스 해소; 감정 자극,37.5644806,127.0363214
대한당구장,당구장,서울특별시 중구 충무로4가 퇴계로,스트레스 해소; 감정 자극,37.5615873,126.9953997
아세아당구장,당구장,서울특별시 성북구 석관동 돌곶이로,스트레스 해소; 감정 자극,37.6091994,127.0582505
에센휘트니스클럽,헬스/휘트니스,서울특별시 동대문구 장안동 장안벚꽃로,스트레스 해소; 감정 자극,37.5692171,127.0757114
아센휘트니스헬스클럽,헬스/휘트니스,서울특별시 성동구 금호동4가 독서당로,스트레스 해소; 감정 자극,37.5467243,127.0190748
한숲볼링센터,볼링장,서울특별시 동작구 대방동 여의대방로,스트레스 해소; 감정 자극,37.5116938,126.925089
해인당구장,당구장,서울특별시 중구 수하동 남대문로10길,스트레스 해소; 감정 자극,37.567527,126.9841973
중구회현체육센터,지역실내체육관,서울특별시 중구 회현동1가 퇴계로12길,에너지 회복; 스트레스 해소,37.5580178,126.9822453
동호인테니스협회,테니스장,서울특별시 동대문구 휘경동 망우로,에너지 회복; 스트레스 해소,37.5899957,127.0624325
동아리당구장,당구장,서울특별시 성동구 사근동 사근동길,스트레스 해소; 감정 자극,37.5602757,127.0426082
최박사테니스장,테니스장,서울특별시 용산구 한남동 다산로,에너지 회복; 스트레스 해소,37.5475261,127.0041144
미화볼링장,볼링장,서울특별시 도봉구 창동 도봉로,스트레스 해소; 감정 자극,37.6489234,127.0350005
필스크린골프,실내골프/스크린골프,서울특별시 송파구 송파동 가락로,에너지 회복; 스트레스 해소,37.504081,127.1141497
태양당구장,당구장,서울특별시 용산구 이태원동 회나무로,스트레스 해소; 감정 자극,37.5403783,126.9944187
파워짐휘트니스,헬스/휘트니스,서울특별시 강서구 내발산동 강서로,스트레스 해소; 감정 자극,37.5507788,126.8363291
짐80스포츠센터,헬스/휘트니스,서울특별시 강동구 암사동 올림픽로,스트레스 해소; 감정 자극,37.5553123,127.1294202
진24당구장,당구장,서울특별시 강남구 대치동 역삼로,스트레스 해소; 감정 자극,37.5037829,127.0595421
두바이당구장,당구장,서울특별시 서초구 잠원동 나루터로,스트레스 해소; 감정 자극,37.5161333,127.0120671
명당구장,당구장,서울특별시 중구 황학동 퇴계로87길,스트레스 해소; 감정 자극,37.566436,127.0211336
유성스포츠센터,스포츠센터,서울특별시 강남구 신사동 압구정로,에너지 회복; 스트레스 해소,37.5283635,127.0383787
모닝당구장,당구장,서울특별시 강남구 논현동 논현로,스트레스 해소; 감정 자극,37.5154155,127.0300294
동원당구장,당구장,서울특별시 중랑구 면목동 면목로,스트레스 해소; 감정 자극,37.5816841,127.0886238
바른체형운동센터,헬스/휘트니스,서울특별시 강남구 압구정동 압구정로29길,스트레스 해소; 감정 자극,37.5298229,127.0278284
비제이휘트니스센터,헬스/휘트니스,서울특별시 영등포구 여의도동 은행로,스트레스 해소; 감정 자극,37.5283127,126.9215588
비발디휘트니스,헬스/휘트니스,서울특별시 강북구 미아동 도봉로,스트레스 해소; 감정 자극,37.6308331,127.024486
제일골프스쿨,실내골프/스크린골프,서울특별시 종로구 내수동 사직로8길,에너지 회복; 스트레스 해소,37.574107,126.9724134
한신탁구교실,탁구장,서울특별시 서초구 반포동 신반포로,에너지 회복; 스트레스 해소,37.5044399,126.9996177
개선문당구장,당구장,서울특별시 종로구 관철동 삼일대로19길,스트레스 해소; 감정 자극,37.5695674,126.9866905
황금볼당구장,당구장,서울특별시 구로구 궁동 부일로15길,스트레스 해소; 감정 자극,37.4946574,126.8329128
제주당구장,당구장,서울특별시 동대문구 전농동 서울시립대로,스트레스 해소; 감정 자극,37.5757778,127.0473586
월드당구장,당구장,서울특별시 강서구 화곡동 화곡로,스트레스 해소; 감정 자극,37.5414074,126.8415864
맹호체육관,지역실내체육관,서울특별시 영등포구 양평동1가 영등포로13길,에너지 회복; 스트레스 해소,37.5237769,126.889201
댁크,당구장,서울특별시 마포구 동교동 홍익로6길,스트레스 해소; 감정 자극,37.5570244,126.9251895
크로바볼링장,볼링장,서울특별시 금천구 독산동 시흥대로,스트레스 해소; 감정 자극,37.4684383,126.8980548
장안탁구클럽,탁구장,서울특별시 동대문구 장안동 ,에너지 회복; 스트레스 해소,37.57105,127.06806
산업은행,테니스장,서울특별시 성북구 안암동4가 안암로7길,에너지 회복; 스트레스 해소,37.5802229,127.024568
이조은스크린골프존,실내골프/스크린골프,서울특별시 양천구 신월동 화곡로,에너지 회복; 스트레스 해소,37.5395238,126.8276036
노화자탁구교실,탁구장,서울특별시 서초구 양재동 동산로,에너지 회복; 스트레스 해소,37.469484,127.0411734
원당구장,당구장,서울특별시 송파구 마천동 마천로45길,스트레스 해소; 감정 자극,37.4983562,127.1510792
그랑프리골프존,실내골프/스크린골프,서울특별시 노원구 상계동 수락산로,에너지 회복; 스트레스 해소,37.6651826,127.072442
성원상떼휘트니스,헬스/휘트니스,서울특별시 성동구 옥수동 독서당로,스트레스 해소; 감정 자극,37.5420231,127.0116166
포커스당구장서비스,당구장,서울특별시 강동구 고덕동 고덕로,스트레스 해소; 감정 자극,37.556037,127.1455687
안암탁구클럽,탁구장,서울특별시 성북구 안암동5가 고려대로24길,에너지 회복; 스트레스 해소,37.5844918,127.0294459
에이스당구장,당구장,서울특별시 강남구 개포동 선릉로6길,스트레스 해소; 감정 자극,37.4829974,127.0621169
지엠골프,실내골프/스크린골프,서울특별시 광진구 자양동 뚝섬로33길,에너지 회복; 스트레스 해소,37.5361174,127.0698389
봉이휘트니스클럽,헬스/휘트니스,서울특별시 성북구 종암동 종암로,스트레스 해소; 감정 자극,37.599462,127.0342569
중앙당구장,당구장,서울특별시 중구 명동2가 남대문로,스트레스 해소; 감정 자극,37.5620071,126.9819568
킹당구장,당구장,서울특별시 중랑구 면목동 용마산로,스트레스 해소; 감정 자극,37.587697,127.095871
아트스크린골프,실내골프/스크린골프,서울특별시 마포구 성산동 월드컵로,에너지 회복; 스트레스 해소,37.565398,126.9014552
서교당구장,당구장,서울특별시 마포구 서교동 와우산로,스트레스 해소; 감정 자극,37.5564843,126.9309958
리더스스크린골프,실내골프/스크린골프,서울특별시 금천구 가산동 벚꽃로,에너지 회복; 스트레스 해소,37.4811345,126.8832068
공공탁구장,탁구장,서울특별시 양천구 목동 목동중앙로,에너지 회복; 스트레스 해소,37.5357127,126.8704635
이글스크린,실내골프/스크린골프,서울특별시 서초구 방배동 효령로,에너지 회복; 스트레스 해소,37.4821306,127.0015505
중부골프헬스클럽,실내골프/스크린골프,서울특별시 중구 오장동 동호로33길,에너지 회복; 스트레스 해소,37.5654058,127.0006531
현대레포츠스쿨,스포츠센터,서울특별시 도봉구 방학동 도당로,에너지 회복; 스트레스 해소,37.666259,127.0380315
굿샷스크린골프,실내골프/스크린골프,서울특별시 영등포구 대림동 대림로,에너지 회복; 스트레스 해소,37.5019187,126.8968464
아이엠지스포츠센터,지역체육센터,서울특별시 구로구 구로동 경인로,에너지 회복; 스트레스 해소,37.5003017,126.8758793
스피드,당구장,서울특별시 서초구 방배동 방배로,스트레스 해소; 감정 자극,37.4783113,126.9997061
서울시티클럽휘트니스,헬스/휘트니스,서울특별시 영등포구 여의도동 여의공원로,스트레스 해소; 감정 자극,37.5286422,126.924813
드림헬스,헬스/휘트니스,서울특별시 중랑구 묵동 공릉로2길,스트레스 해소; 감정 자극,37.6121011,127.0796016
공때리네,당구장,서울특별시 금천구 가산동 범안로,스트레스 해소; 감정 자극,37.4656449,126.8881632
뉴청룡볼링장,볼링장,서울특별시 용산구 갈월동 한강대로,스트레스 해소; 감정 자극,37.5446302,126.9719792
영춘권수련원,지역실내체육관,서울특별시 마포구 서교동 동교로,에너지 회복; 스트레스 해소,37.5596547,126.9240477
챔프당구장,당구장,서울특별시 성동구 마장동 마장로29길,스트레스 해소; 감정 자극,37.5688544,127.0365448
아카데미당구장,당구장,서울특별시 종로구 낙원동 수표로,스트레스 해소; 감정 자극,37.5715103,126.989201
한성당구장,당구장,서울특별시 중구 흥인동 퇴계로81길,스트레스 해소; 감정 자극,37.5677014,127.0175989
헬스존,헬스/휘트니스,서울특별시 마포구 공덕동 만리재로,스트레스 해소; 감정 자극,37.5473549,126.9581789
예일당구장,당구장,서울특별시 동대문구 장안동 천호대로77길,스트레스 해소; 감정 자극,37.5647283,127.0625429
휘트니스링크,헬스/휘트니스,서울특별시 동대문구 전농동 사가정로,스트레스 해소; 감정 자극,37.5747671,127.0536195
아이짐헬스,헬스/휘트니스,서울특별시 서초구 서초동 효령로,스트레스 해소; 감정 자극,37.4845119,127.0174076
제이골프스쿨,실내골프/스크린골프,서울특별시 광진구 구의동 광나루로,에너지 회복; 스트레스 해소,37.5455283,127.0863484
멀티짐휘트니스코리아,헬스/휘트니스,서울특별시 서대문구 대현동 신촌역로,스트레스 해소; 감정 자극,37.5584469,126.9425086
동아볼링센터,볼링장,서울특별시 종로구 숭인동 종로,스트레스 해소; 감정 자극,37.5736453,127.0165769
한일당구장,당구장,서울특별시 종로구 인의동 종로,스트레스 해소; 감정 자극,37.5706049,126.994587
로터리당구장,당구장,서울특별시 동대문구 이문동 이문로,스트레스 해소; 감정 자극,37.5942839,127.0595394
성림당구장,당구장,서울특별시 중구 을지로4가 을지로,스트레스 해소; 감정 자극,37.5662957,126.9900691
골드스크린골프존,실내골프/스크린골프,서울특별시 마포구 도화동 마포대로,에너지 회복; 스트레스 해소,37.5367823,126.9418272
파아란바다,요트장,서울특별시 강남구 신사동 도산대로25길,스트레스 해소; 감정 자극,37.5213326,127.026831
북악스크린골프,실내골프/스크린골프,서울특별시 성북구 성북동 성북로,에너지 회복; 스트레스 해소,37.59439,126.9925934
뉴스타헬스클럽,헬스/휘트니스,서울특별시 도봉구 방학동 도당로13길,스트레스 해소; 감정 자극,37.6661204,127.0347163
애플짐,헬스/휘트니스,서울특별시 강서구 내발산동 강서로,스트레스 해소; 감정 자극,37.5507788,126.8363291
프로투당구장,당구장,서울특별시 영등포구 당산동3가 당산로,스트레스 해소; 감정 자극,37.5252518,126.8965569
수서스크린골프존,실내골프/스크린골프,서울특별시 강남구 수서동 광평로51길,에너지 회복; 스트레스 해소,37.4900792,127.1014586
은하당구장,당구장,서울특별시 영등포구 여의도동 국제금융로,스트레스 해소; 감정 자극,37.5209509,126.9318158
뉴서울당구장,당구장,서울특별시 중구 태평로2가 서소문로,스트레스 해소; 감정 자극,37.5620526,126.9703344
21세기헬스,헬스/휘트니스,서울특별시 송파구 거여동 양산로,스트레스 해소; 감정 자극,37.4915898,127.1437623
메트로짐,헬스/휘트니스,서울특별시 구로구 구로동 구로동로,스트레스 해소; 감정 자극,37.4860547,126.8855838
이튼스크린골프,실내골프/스크린골프,서울특별시 광진구 자양동 능동로,에너지 회복; 스트레스 해소,37.5375517,127.0696332
타이거즈당구장,당구장,서울특별시 성북구 안암동5가 개운사길,스트레스 해소; 감정 자극,37.5896432,127.030019
우이볼링장,볼링장,서울특별시 강북구 수유동 삼양로,스트레스 해소; 감정 자극,37.6353867,127.0170277
제이엔비레포츠클럽,헬스/휘트니스,서울특별시 송파구 풍납동 토성로,스트레스 해소; 감정 자극,37.5297467,127.1148779
뉴황제스크린골프,실내골프/스크린골프,서울특별시 동작구 사당동 동작대로25길,에너지 회복; 스트레스 해소,37.4846169,126.9794192
월드휘트니스,헬스/휘트니스,서울특별시 마포구 염리동 독막로,스트레스 해소; 감정 자극,37.5447824,126.9457929
자메이카휘트니스,헬스/휘트니스,서울특별시 관악구 봉천동 남부순환로,스트레스 해소; 감정 자극,37.482104,126.9491729
르네상스휘트니스클럽,헬스/휘트니스,서울특별시 송파구 오금동 오금로,스트레스 해소; 감정 자극,37.5026783,127.1271012
해와달스크린골프존,실내골프/스크린골프,서울특별시 강서구 화곡동 화곡로,에너지 회복; 스트레스 해소,37.5414074,126.8415864
거룡체육관,지역실내체육관,서울특별시 중랑구 면목동 면목로,에너지 회복; 스트레스 해소,37.5816841,127.0886238
유에프오포켓볼,당구장,서울특별시 종로구 명륜4가 대명길,스트레스 해소; 감정 자극,37.5833284,127.0003038
스와시휘트니스클럽,헬스/휘트니스,서울특별시 마포구 동교동 연희로,스트레스 해소; 감정 자극,37.5587273,126.9268573
맥스토탈휘트니스,헬스/휘트니스,서울특별시 광진구 화양동 아차산로,스트레스 해소; 감정 자극,37.5407462,127.0684171
종암스크린골프스쿨,실내골프/스크린골프,서울특별시 성북구 종암동 종암로,에너지 회복; 스트레스 해소,37.599462,127.0342569
한남스크린골프,실내골프/스크린골프,서울특별시 용산구 한남동 한남대로,에너지 회복; 스트레스 해소,37.5333924,127.0076863
포임스포츠클럽,헬스/휘트니스,서울특별시 영등포구 대림동 대림로,스트레스 해소; 감정 자극,37.5019187,126.8968464
스마트빌리아드,당구장,서울특별시 은평구 녹번동 서오릉로2길,스트레스 해소; 감정 자극,37.6023665,126.9274655
째즈당구장,당구장,서울특별시 강동구 명일동 동남로75길,스트레스 해소; 감정 자극,37.5543187,127.1549112
동작탁구교실,탁구장,서울특별시 동작구 흑석동 현충로,에너지 회복; 스트레스 해소,37.5109655,126.9617918
용인대풍납태권도,지역실내체육관,서울특별시 송파구 풍납동 풍성로,에너지 회복; 스트레스 해소,37.5343091,127.1170341
나라휘트니스센터,헬스/휘트니스,서울특별시 강남구 신사동 압구정로,스트레스 해소; 감정 자극,37.5283635,127.0383787
골든짐스포츠,헬스/휘트니스,서울특별시 중구 장충동1가 장충단로,스트레스 해소; 감정 자극,37.5622474,127.0064864
골든베어스크린골프장,실내골프/스크린골프,서울특별시 동작구 사당동 사당로,에너지 회복; 스트레스 해소,37.4858226,126.9698251
올림푸스당구장,당구장,서울특별시 관악구 신림동 신림로,스트레스 해소; 감정 자극,37.4717581,126.9335007
귀빈당구장,당구장,서울특별시 중구 을지로2가 삼일대로12길,스트레스 해소; 감정 자극,37.5667238,126.9886515
V트렁크헬스클럽,헬스/휘트니스,서울특별시 서초구 우면동 바우뫼로7길,스트레스 해소; 감정 자극,37.4713458,127.0245034
오류테니스장,테니스장,서울특별시 구로구 오류동 오리로,에너지 회복; 스트레스 해소,37.4884195,126.8365683
오렌지당구장,당구장,서울특별시 영등포구 여의도동 국제금융로,스트레스 해소; 감정 자극,37.5209509,126.9318158
가산당구장,당구장,서울특별시 금천구 가산동 가산디지털1로,스트레스 해소; 감정 자극,37.4776652,126.8827945
K2당구장,당구장,서울특별시 강동구 명일동 동남로75길,스트레스 해소; 감정 자극,37.5543187,127.1549112
SP당구장,당구장,서울특별시 강남구 수서동 광평로56길,스트레스 해소; 감정 자극,37.4871329,127.1040775
탑당구장,당구장,서울특별시 관악구 신림동 신림로,스트레스 해소; 감정 자극,37.4717581,126.9335007
더블유플러스휘트니스센터,헬스/휘트니스,서울특별시 강남구 논현동 논현로,스트레스 해소; 감정 자극,37.5154155,127.0300294
태광스쿼시클럽,스포츠센터,서울특별시 강서구 내발산동 강서로52길,에너지 회복; 스트레스 해소,37.5576279,126.840941
실내낚시터,실내낚시터,서울특별시 은평구 대조동 서오릉로,안정감; 감정 정화,37.6101479,126.9190402
혜우볼링센터,볼링장,서울특별시 서대문구 대현동 신촌역로,스트레스 해소; 감정 자극,37.5584469,126.9425086
청마휘트니스,헬스/휘트니스,서울특별시 도봉구 창동 도봉로110길,스트레스 해소; 감정 자극,37.6462016,127.0364311
세란골프,실내골프/스크린골프,서울특별시 종로구 무악동 통일로,에너지 회복; 스트레스 해소,37.5779642,126.9546851
일신스포츠,헬스/휘트니스,서울특별시 마포구 도화동 삼개로,스트레스 해소; 감정 자극,37.5401553,126.9473095
나노체육시설운영,일반수영장,서울특별시 서대문구 남가좌동 증가로,에너지 회복; 안정감,37.5758721,126.9254361
석금당구장,당구장,서울특별시 성동구 마장동 ,스트레스 해소; 감정 자극,37.56743,127.04045
고려당구장,당구장,서울특별시 성북구 안암동5가 안암로9가길,스트레스 해소; 감정 자극,37.5811591,127.0266126
그린샷스크린골프,실내골프/스크린골프,서울특별시 도봉구 도봉동 도봉로,에너지 회복; 스트레스 해소,37.6743759,127.044344
삼성골드스포츠클럽,일반수영장,서울특별시 서대문구 남가좌동 증가로,에너지 회복; 안정감,37.5758721,126.9254361
흥봉헬스클럽,헬스/휘트니스,서울특별시 노원구 상계동 한글비석로44길,스트레스 해소; 감정 자극,37.6644933,127.0705301
풀스윙스크린골프,실내골프/스크린골프,서울특별시 강남구 삼성동 테헤란로87길,에너지 회복; 스트레스 해소,37.5086166,127.0589795
용산탁구클럽,탁구장,서울특별시 용산구 원효로2가 원효로,에너지 회복; 스트레스 해소,37.5354634,126.9618637
하바나스크린골프,실내골프/스크린골프,서울특별시 강북구 미아동 도봉로,에너지 회복; 스트레스 해소,37.6308331,127.024486
클럽I앤J헬스클럽,스포츠센터,서울특별시 강남구 압구정동 ,에너지 회복; 스트레스 해소,37.5300432,127.0313346
서소문당구장,당구장,서울특별시 중구 서소문동 서소문로,스트레스 해소; 감정 자극,37.5620526,126.9703344
수정당구장,당구장,서울특별시 성동구 성수동1가 왕십리로4길,스트레스 해소; 감정 자극,37.5455845,127.0453108
월드짐,헬스/휘트니스,서울특별시 마포구 합정동 독막로6길,스트레스 해소; 감정 자극,37.547083,126.9172629
월드컵당구장,당구장,서울특별시 구로구 개봉동 남부순환로97길,스트레스 해소; 감정 자극,37.4940353,126.8584457
선골프연습장,실내골프/스크린골프,서울특별시 성동구 성수동2가 성덕정길,에너지 회복; 스트레스 해소,37.5371012,127.0576727
비타민휘트니스클럽,헬스/휘트니스,서울특별시 은평구 구산동 연서로,스트레스 해소; 감정 자극,37.6093881,126.9162384
스쿠버블루,요트장,서울특별시 강남구 삼성동 영동대로129길,스트레스 해소; 감정 자극,37.5175317,127.0546663
자이언트당구장,당구장,서울특별시 관악구 봉천동 관악로,스트레스 해소; 감정 자극,37.4812588,126.9527443
매일헬스클럽,헬스/휘트니스,서울특별시 양천구 신정동 신월로,스트레스 해소; 감정 자극,37.5213479,126.8521006
사당탁구장,탁구장,서울특별시 동작구 사당동 사당로,에너지 회복; 스트레스 해소,37.4858226,126.9698251
타이거스크린골프,실내골프/스크린골프,서울특별시 동작구 대방동 등용로,에너지 회복; 스트레스 해소,37.505551,126.9342135
이왕표체육관,지역실내체육관,서울특별시 영등포구 양평동1가 영등포로,에너지 회복; 스트레스 해소,37.5225147,126.888502
삼승헬스클럽,헬스/휘트니스,서울특별시 중랑구 묵동 동일로,스트레스 해소; 감정 자극,37.6113605,127.0776235
소락당구장,당구장,서울특별시 중구 만리동1가 만리재로,스트레스 해소; 감정 자극,37.5557773,126.9677812
엠당구장,당구장,서울특별시 영등포구 양평동4가 선유로49길,스트레스 해소; 감정 자극,37.536476,126.8955505
월드스타휘트니스클럽,헬스/휘트니스,서울특별시 도봉구 쌍문동 우이천로32길,스트레스 해소; 감정 자극,37.6505143,127.0251994
대동종합체육관,지역실내체육관,서울특별시 마포구 염리동 신촌로,에너지 회복; 스트레스 해소,37.5570222,126.9510199
예스휘트니스,헬스/휘트니스,서울특별시 관악구 봉천동 관악로,스트레스 해소; 감정 자극,37.4812588,126.9527443
남영볼링센터,볼링장,서울특별시 용산구 갈월동 한강대로,스트레스 해소; 감정 자극,37.5446302,126.9719792
코드짐,헬스/휘트니스,서울특별시 노원구 상계동 상계로,스트레스 해소; 감정 자극,37.662197,127.0747824
나비스포렉스,실내골프/스크린골프,서울특별시 서대문구 홍제동 통일로34길,에너지 회복; 스트레스 해소,37.5861285,126.9498964
염창드림골프존,실내골프/스크린골프,서울특별시 강서구 염창동 공항대로59다길,에너지 회복; 스트레스 해소,37.5516195,126.8683148
여의도골프존,실내골프/스크린골프,서울특별시 영등포구 여의도동 국제금융로,에너지 회복; 스트레스 해소,37.5209509,126.9318158
굿모닝헬스,헬스/휘트니스,서울특별시 성동구 성수동2가 성수이로,스트레스 해소; 감정 자극,37.5358659,127.0539178
한아름탁구장,탁구장,서울특별시 광진구 화양동 능동로13길,에너지 회복; 스트레스 해소,37.5443871,127.0695053
명문헬스골프,헬스/휘트니스,서울특별시 동작구 상도동 상도로,스트레스 해소; 감정 자극,37.5030223,126.9360156
카리브헬스휘트니스,헬스/휘트니스,서울특별시 서초구 서초동 서초대로,스트레스 해소; 감정 자극,37.49381,127.0143743
더블에이치멀티짐,헬스/휘트니스,서울특별시 강남구 신사동 도산대로,스트레스 해소; 감정 자극,37.5225171,127.0368164
오케이스크린골프존,실내골프/스크린골프,서울특별시 강남구 신사동 선릉로,에너지 회복; 스트레스 해소,37.525515,127.0398999
경희궁스포츠센터,스포츠센터,서울특별시 종로구 당주동 새문안로3길,에너지 회복; 스트레스 해소,37.5729873,126.9726494
그랜드슬램테니스장,테니스장,서울특별시 은평구 불광동 ,에너지 회복; 스트레스 해소,37.6194236,126.9354046
렉시온당구장,당구장,서울특별시 서초구 서초동 강남대로,스트레스 해소; 감정 자극,37.500088,127.0262063
제너시스21,서바이벌게임장,서울특별시 종로구 종로2가 종로,감정 자극; 스트레스 해소,37.5701732,126.987742
챔피언탁구장,탁구장,서울특별시 중랑구 망우동 망우로,에너지 회복; 스트레스 해소,37.600541,127.1053362
대원당구장,당구장,서울특별시 금천구 시흥동 시흥대로,스트레스 해소; 감정 자극,37.4479738,126.9033279
임팩트스크린골프장,실내골프/스크린골프,서울특별시 종로구 숭인동 종로,에너지 회복; 스트레스 해소,37.5736453,127.0165769
모아당구장,당구장,서울특별시 서대문구 냉천동 통일로,스트레스 해소; 감정 자극,37.5665561,126.9652462
한일탁구장,탁구장,서울특별시 구로구 개봉동 개봉로,에너지 회복; 스트레스 해소,37.4945424,126.8562589
제이앤시남여헬스클럽,헬스/휘트니스,서울특별시 노원구 상계동 한글비석로,스트레스 해소; 감정 자극,37.6604332,127.0719118
삼진당구장,당구장,서울특별시 송파구 삼전동 삼학사로13길,스트레스 해소; 감정 자극,37.5035458,127.0941131
영광헬스클럽,헬스/휘트니스,서울특별시 은평구 녹번동 녹번로,스트레스 해소; 감정 자극,37.6047275,126.9282516
두리당구장,당구장,서울특별시 중구 태평로1가 세종대로21길,스트레스 해소; 감정 자극,37.5676865,126.9757315
서문당구장,당구장,서울특별시 중구 태평로2가 서소문로,스트레스 해소; 감정 자극,37.5620526,126.9703344
21세기당구장,당구장,서울특별시 성북구 보문동4가 보문로,스트레스 해소; 감정 자극,37.5866456,127.0186589
아일랜드스크린골프,실내골프/스크린골프,서울특별시 영등포구 여의도동 국회대로70길,에너지 회복; 스트레스 해소,37.5292969,126.9202776
포인트당구장,당구장,서울특별시 마포구 합정동 양화로,스트레스 해소; 감정 자극,37.5482807,126.9104886
오렌지휘트니스2,헬스/휘트니스,서울특별시 관악구 봉천동 남부순환로,스트레스 해소; 감정 자극,37.482104,126.9491729
오메가당구장,당구장,서울특별시 양천구 신월동 월정로,스트레스 해소; 감정 자극,37.532924,126.8363283
서교휘트니스,헬스/휘트니스,서울특별시 마포구 서교동 잔다리로,스트레스 해소; 감정 자극,37.5569376,126.9141526
25시당구장,당구장,서울특별시 영등포구 당산동1가 영등포로,스트레스 해소; 감정 자극,37.5209946,126.8983668
세운당구장,당구장,서울특별시 종로구 장사동 종로26길,스트레스 해소; 감정 자극,37.5696118,126.9949669
비바체당구클럽,당구장,서울특별시 강남구 논현동 봉은사로,스트레스 해소; 감정 자극,37.5055954,127.0280206
레드타이거스포츠클럽,헬스/휘트니스,서울특별시 노원구 중계동 중계로12가길,스트레스 해소; 감정 자극,37.6476863,127.0823848
네오맥스휘트니스,헬스/휘트니스,서울특별시 영등포구 대림동 가마산로48길,스트레스 해소; 감정 자극,37.5016749,126.9015709
우정골프존,실내골프/스크린골프,서울특별시 강동구 둔촌동 풍성로,에너지 회복; 스트레스 해소,37.5261326,127.1465097
유원스크린골프,실내골프/스크린골프,서울특별시 금천구 가산동 가산디지털2로,에너지 회복; 스트레스 해소,37.4820799,126.8781353
세원볼링센터,볼링장,서울특별시 양천구 신정동 신월로,스트레스 해소; 감정 자극,37.5213479,126.8521006
피아휘트니스센터,헬스/휘트니스,서울특별시 강남구 논현동 강남대로,스트레스 해소; 감정 자극,37.5090782,127.0224067
퀸당구장,당구장,서울특별시 마포구 성산동 모래내로1길,스트레스 해소; 감정 자극,37.5650222,126.903539
심몽당구장,당구장,서울특별시 중구 신당동 ,스트레스 해소; 감정 자극,37.5651969,127.01322
힐헬스,헬스/휘트니스,서울특별시 성동구 행당동 왕십리로,스트레스 해소; 감정 자극,37.5590431,127.0378622
길현탁구장,탁구장,서울특별시 서대문구 북가좌동 응암로,에너지 회복; 스트레스 해소,37.5836838,126.9145097
삼호당구,당구장,서울특별시 중구 주교동 을지로33길,스트레스 해소; 감정 자극,37.5672119,126.9993385
다동당구장,당구장,서울특별시 중구 다동 남대문로9길,스트레스 해소; 감정 자극,37.566849,126.9803486
알프스당구장,당구장,서울특별시 도봉구 방학동 도당로13길,스트레스 해소; 감정 자극,37.6661204,127.0347163
이레휘트니스,헬스/휘트니스,서울특별시 성동구 용답동 자동차시장1길,스트레스 해소; 감정 자극,37.5609606,127.0609086
홀인원,실내골프/스크린골프,서울특별시 중구 신당동 다산로,에너지 회복; 스트레스 해소,37.5674901,127.0161009
상아당구장,당구장,서울특별시 용산구 갈월동 한강대로81길,스트레스 해소; 감정 자극,37.5427303,126.971613
용인대풍진태권도장,지역실내체육관,서울특별시 강동구 천호동 천중로17길,에너지 회복; 스트레스 해소,37.5464442,127.1317065
후원에스지스크린골프장,실내골프/스크린골프,서울특별시 관악구 신림동 남부순환로,에너지 회복; 스트레스 해소,37.4842956,126.9298124
제일메가스포휘트니스,헬스/휘트니스,서울특별시 종로구 연건동 율곡로,스트레스 해소; 감정 자극,37.575933,126.9997404
금강스크린골프,실내골프/스크린골프,서울특별시 영등포구 문래동5가 선유로,에너지 회복; 스트레스 해소,37.5194314,126.8893618
올림픽당구장,당구장,서울특별시 종로구 관철동 삼일대로19길,스트레스 해소; 감정 자극,37.5695674,126.9866905
신한당구장,당구장,서울특별시 용산구 서계동 만리재로,스트레스 해소; 감정 자극,37.5541111,126.9656703
VIP당구장,당구장,서울특별시 마포구 서교동 홍익로3길,스트레스 해소; 감정 자극,37.5534377,126.9218889
주공태권도,지역실내체육관,서울특별시 도봉구 창동 노해로66길,에너지 회복; 스트레스 해소,37.647158,127.0488629
태권도지도관,스포츠센터,서울특별시 용산구 한남동 우사단로10길,에너지 회복; 스트레스 해소,37.5315354,127.0019424
중앙헬스클럽,헬스/휘트니스,서울특별시 중구 중림동 청파로103길,스트레스 해소; 감정 자극,37.558296,126.9685612
웰리스운동센타,헬스/휘트니스,서울특별시 강남구 역삼동 언주로,스트레스 해소; 감정 자극,37.4963919,127.0458068
헤이당구장,당구장,서울특별시 마포구 동교동 홍익로6길,스트레스 해소; 감정 자극,37.5570244,126.9251895
한게임당구장,당구장,서울특별시 성동구 용답동 용답중앙길,스트레스 해소; 감정 자극,37.5635666,127.0531542
태양당구클럽,당구장,서울특별시 마포구 합정동 양화로3길,스트레스 해소; 감정 자극,37.5506228,126.9113005
남경당구클럽,당구장,서울특별시 마포구 합정동 포은로2가길,스트레스 해소; 감정 자극,37.5511975,126.9080127
태광스포츠클럽,스포츠센터,서울특별시 강서구 내발산동 강서로52길,에너지 회복; 스트레스 해소,37.5576279,126.840941
햇빛당구장,당구장,서울특별시 강동구 고덕동 아리수로74길,스트레스 해소; 감정 자극,37.5609277,127.1622007
휘트니스파크,헬스/휘트니스,서울특별시 광진구 군자동 능동로,스트레스 해소; 감정 자극,37.5540997,127.0772388
웅진당구장,당구장,서울특별시 성동구 성수동2가 연무장길,스트레스 해소; 감정 자극,37.5411759,127.0595267
굿모닝헬스타운,헬스/휘트니스,서울특별시 노원구 중계동 중계로12가길,스트레스 해소; 감정 자극,37.6476863,127.0823848
중앙헬스휘트니스,헬스/휘트니스,서울특별시 동대문구 이문동 외대역동로,스트레스 해소; 감정 자극,37.5985768,127.0657002
존슨휘트니스,헬스/휘트니스,서울특별시 송파구 잠실동 올림픽로,스트레스 해소; 감정 자극,37.5115211,127.0757714
그린에이로빅,헬스/휘트니스,서울특별시 성북구 석관동 돌곶이로8바길,스트레스 해소; 감정 자극,37.608066,127.0639871
웰리스휘트니스,헬스/휘트니스,서울특별시 구로구 구로동 경인로,스트레스 해소; 감정 자극,37.5003017,126.8758793
바디아트,헬스/휘트니스,서울특별시 광진구 군자동 능동로,스트레스 해소; 감정 자극,37.5540997,127.0772388
익스트림피트니스,헬스/휘트니스,서울특별시 마포구 상암동 월드컵북로,스트레스 해소; 감정 자극,37.5825783,126.8832349
고척스카이돔,프로야구경기장,서울특별시 구로구 고척동 경인로,에너지 회복; 스트레스 해소,37.4975857,126.8637132
반포공설운동장체육센터,지역체육센터,서울특별시 서초구 반포동 신반포로16길,에너지 회복; 스트레스 해소,37.4998032,126.9967101
살곶이정,궁도장,서울특별시 성동구 행당동 ,안정감; 사회적 연결,37.55783,127.03571
엠파이어휘트니스,헬스/휘트니스,서울특별시 영등포구 여의도동 국제금융로6길,스트레스 해소; 감정 자극,37.521872,126.9275525
궁전당구장,당구장,서울특별시 구로구 개봉동 개봉로,스트레스 해소; 감정 자극,37.4945424,126.8562589
나이스당구장,당구장,서울특별시 구로구 개봉동 개봉로,스트레스 해소; 감정 자극,37.4945424,126.8562589
와이키키휘트니스,헬스/휘트니스,서울특별시 강동구 길동 양재대로,스트레스 해소; 감정 자극,37.5375025,127.1398729
세명당구장,당구장,서울특별시 구로구 개봉동 개봉로20길,스트레스 해소; 감정 자극,37.4927802,126.8599687
궁동산체육관,지역실내체육관,서울특별시 서대문구 연희동 연희로11마길,에너지 회복; 스트레스 해소,37.5689167,126.9254502
비바피트니스클럽,헬스/휘트니스,서울특별시 서대문구 북가좌동 응암로,스트레스 해소; 감정 자극,37.5836838,126.9145097
메트로스포츠센터,헬스/휘트니스,서울특별시 중구 무교동 무교로,스트레스 해소; 감정 자극,37.5674649,126.9792221
패밀리당구카페,당구장,서울특별시 금천구 시흥동 금하로,스트레스 해소; 감정 자극,37.4516854,126.9073247
프리스티지,헬스/휘트니스,서울특별시 강남구 삼성동 테헤란로87길,스트레스 해소; 감정 자극,37.5086166,127.0589795
밀레니엄짐,헬스/휘트니스,서울특별시 마포구 상암동 월드컵북로56길,스트레스 해소; 감정 자극,37.5815471,126.8880207
뉴올림픽헬스,헬스/휘트니스,서울특별시 송파구 방이동 백제고분로50길,스트레스 해소; 감정 자극,37.5134106,127.1180192
하나골프스쿨,실내골프/스크린골프,서울특별시 은평구 증산동 증산서길,에너지 회복; 스트레스 해소,37.5868262,126.9094379
로타리당구장,당구장,서울특별시 서대문구 홍제동 통일로,스트레스 해소; 감정 자극,37.5838023,126.9495888
월드당구클럽,당구장,서울특별시 송파구 장지동 충민로2길,스트레스 해소; 감정 자극,37.478047,127.1273951
비바체당구장,당구장,서울특별시 서대문구 홍제동 통일로,스트레스 해소; 감정 자극,37.5838023,126.9495888
스페이스본휘트니스&사우나,헬스/휘트니스,서울특별시 종로구 사직동 사직로8길,스트레스 해소; 감정 자극,37.574107,126.9724134
다저스당구장,당구장,서울특별시 강동구 천호동 구천면로,스트레스 해소; 감정 자극,37.5469479,127.1339475
주영볼링센터,볼링장,서울특별시 강서구 가양동 양천로,스트레스 해소; 감정 자극,37.5627471,126.8519544
주영당구클럽,당구장,서울특별시 강서구 가양동 양천로,스트레스 해소; 감정 자극,37.5627471,126.8519544
369당구장,당구장,서울특별시 강서구 화곡동 화곡로,스트레스 해소; 감정 자극,37.5414074,126.8415864
서울숲골프존,실내골프/스크린골프,서울특별시 동작구 상도동 상도로,에너지 회복; 스트레스 해소,37.5030223,126.9360156
우진당구장,당구장,서울특별시 구로구 궁동 오리로,스트레스 해소; 감정 자극,37.5025971,126.8290634
성보당구장,당구장,서울특별시 구로구 구로동 가마산로,스트레스 해소; 감정 자극,37.488503,126.8810697
달인당구클럽,당구장,서울특별시 은평구 녹번동 은평로,스트레스 해소; 감정 자극,37.6018768,126.9301521
브라보스크린골프,실내골프/스크린골프,서울특별시 서초구 방배동 방배로,에너지 회복; 스트레스 해소,37.4783113,126.9997061
신목탁구,탁구장,서울특별시 양천구 목동 목동중앙로,에너지 회복; 스트레스 해소,37.5357127,126.8704635
챔프24,당구장,서울특별시 강남구 논현동 도산대로,스트레스 해소; 감정 자극,37.517912,127.0241023
천재당구장,당구장,서울특별시 송파구 풍납동 올림픽로47길,스트레스 해소; 감정 자극,37.5282469,127.1172946
스타헬스클럽,헬스/휘트니스,서울특별시 서대문구 남가좌동 증가로,스트레스 해소; 감정 자극,37.5758721,126.9254361
제이헬스,헬스/휘트니스,서울특별시 용산구 한남동 대사관로34길,스트레스 해소; 감정 자극,37.5316672,127.0057043
명품당구장,당구장,서울특별시 용산구 한남동 대사관로34길,스트레스 해소; 감정 자극,37.5316672,127.0057043
상원스포월드,헬스/휘트니스,서울특별시 은평구 구산동 서오릉로,스트레스 해소; 감정 자극,37.6111902,126.916207
마운틴당구클럽,당구장,서울특별시 강서구 공항동 공항대로,스트레스 해소; 감정 자극,37.5598386,126.8264988
청운당구장,당구장,서울특별시 강서구 공항동 공항대로,스트레스 해소; 감정 자극,37.5598386,126.8264988
리스당구장,당구장,서울특별시 용산구 효창동 효창원로69길,스트레스 해소; 감정 자극,37.5427871,126.9603016
만리탁구클럽,탁구장,서울특별시 용산구 서계동 효창원로,에너지 회복; 스트레스 해소,37.5519045,126.9629738
더라인휘트니스,헬스/휘트니스,서울특별시 강남구 역삼동 테헤란로,스트레스 해소; 감정 자극,37.5034432,127.0458432
성화당구장,당구장,서울특별시 마포구 구수동 토정로,스트레스 해소; 감정 자극,37.5450319,126.933469
클래식스크린골프,실내골프/스크린골프,서울특별시 용산구 한남동 독서당로,에너지 회복; 스트레스 해소,37.5331534,127.0072808
OK스크린골프방,실내골프/스크린골프,서울특별시 마포구 서교동 잔다리로,에너지 회복; 스트레스 해소,37.5569376,126.9141526
용당구장,당구장,서울특별시 용산구 용산동2가 신흥로,스트레스 해소; 감정 자극,37.5444274,126.9871941
제이제이당구클럽,당구장,서울특별시 관악구 봉천동 남부순환로,스트레스 해소; 감정 자극,37.482104,126.9491729
하이클래스,당구장,서울특별시 은평구 구산동 서오릉로,스트레스 해소; 감정 자극,37.6111902,126.916207
나인짐휘트니스클럽,헬스/휘트니스,서울특별시 관악구 봉천동 남부순환로,스트레스 해소; 감정 자극,37.482104,126.9491729
챔프골프연습장,실내골프/스크린골프,서울특별시 관악구 봉천동 남부순환로,에너지 회복; 스트레스 해소,37.482104,126.9491729
퍼즐당구클럽,당구장,서울특별시 강동구 길동 양재대로116길,스트레스 해소; 감정 자극,37.5380844,127.1431788
명당구클럽,당구장,서울특별시 마포구 서교동 어울마당로,스트레스 해소; 감정 자극,37.555427,126.9236596
롯데스크린골프존,실내골프/스크린골프,서울특별시 강남구 대치동 도곡로,에너지 회복; 스트레스 해소,37.5023492,127.0715737
가이당구클럽,당구장,서울특별시 구로구 가리봉동 남부순환로107길,스트레스 해소; 감정 자극,37.4792897,126.8938649
수당구장,당구장,서울특별시 관악구 봉천동 봉천로,스트레스 해소; 감정 자극,37.4826787,126.9495443
메이저당구클럽,당구장,서울특별시 영등포구 도림동 도신로,스트레스 해소; 감정 자극,37.5094993,126.907095
본당구클럽,당구장,서울특별시 강남구 대치동 삼성로,스트레스 해소; 감정 자극,37.5028596,127.0591472
DL휘트니스센타,헬스/휘트니스,서울특별시 성동구 용답동 천호대로,스트레스 해소; 감정 자극,37.5718615,127.0440633
S라인,당구장,서울특별시 성동구 용답동 용답중앙15길,스트레스 해소; 감정 자극,37.5645114,127.0537563
제이당구장,당구장,서울특별시 금천구 독산동 시흥대로116길,스트레스 해소; 감정 자극,37.4686923,126.8988069
OK당구클럽,당구장,서울특별시 강남구 삼성동 봉은사로,스트레스 해소; 감정 자극,37.5136222,127.0567549
청솔당구장,당구장,서울특별시 구로구 고척동 중앙로,스트레스 해소; 감정 자극,37.4997829,126.8641328
오케이스크린골프,실내골프/스크린골프,서울특별시 구로구 고척동 중앙로3길,에너지 회복; 스트레스 해소,37.5003993,126.8625887
선일당구장,당구장,서울특별시 마포구 용강동 토정로,스트레스 해소; 감정 자극,37.5434511,126.9380823
꾼당구클럽,당구장,서울특별시 마포구 용강동 토정로,스트레스 해소; 감정 자극,37.5434511,126.9380823
골드당구클럽,당구장,서울특별시 강서구 화곡동 화곡로,스트레스 해소; 감정 자극,37.5414074,126.8415864
케이투당구장,당구장,서울특별시 관악구 봉천동 남부순환로,스트레스 해소; 감정 자극,37.482104,126.9491729
매니아당구장,당구장,서울특별시 강남구 개포동 개포로,스트레스 해소; 감정 자극,37.489715,127.0695778
정훈당구장,당구장,서울특별시 금천구 독산동 독산로,스트레스 해소; 감정 자극,37.4686271,126.9022919
쌍문헬스,헬스/휘트니스,서울특별시 도봉구 쌍문동 노해로,스트레스 해소; 감정 자극,37.6482741,127.0261233
삼성당구장,당구장,서울특별시 중구 중림동 중림로,스트레스 해소; 감정 자극,37.558421,126.9664728
오선생파워로빅,헬스/휘트니스,서울특별시 노원구 상계동 한글비석로,스트레스 해소; 감정 자극,37.6604332,127.0719118
킹콩당구장,당구장,서울특별시 용산구 신계동 새창로45길,스트레스 해소; 감정 자극,37.5348943,126.9644685
동신스크린골프,실내골프/스크린골프,서울특별시 마포구 공덕동 마포대로,에너지 회복; 스트레스 해소,37.5449366,126.9522422
오병만탁구클럽,탁구장,서울특별시 관악구 봉천동 양녕로,에너지 회복; 스트레스 해소,37.485759,126.946929
네오짐,헬스/휘트니스,서울특별시 관악구 봉천동 양녕로,스트레스 해소; 감정 자극,37.485759,126.946929
승리당구장,당구장,서울특별시 도봉구 도봉동 도봉로165길,스트레스 해소; 감정 자극,37.6773676,127.0442779
바디짐휘트니스,헬스/휘트니스,서울특별시 관악구 봉천동 양녕로,스트레스 해소; 감정 자극,37.485759,126.946929
국제체육관,지역실내체육관,서울특별시 도봉구 도봉동 도봉로169나길,에너지 회복; 스트레스 해소,37.6748772,127.042872
요기당구장,당구장,서울특별시 강서구 화곡동 강서로,스트레스 해소; 감정 자극,37.5397125,126.8418447
수복골프연습장,실내골프/스크린골프,서울특별시 용산구 후암동 후암로4길,에너지 회복; 스트레스 해소,37.5474705,126.9800039
SBS당구장,당구장,서울특별시 은평구 불광동 불광로,스트레스 해소; 감정 자극,37.6189765,126.932671
스팅당구장,당구장,서울특별시 노원구 공릉동 공릉로,스트레스 해소; 감정 자극,37.6264226,127.07998
로얄헬스,헬스/휘트니스,서울특별시 강서구 화곡동 강서로,스트레스 해소; 감정 자극,37.5397125,126.8418447
큐플러스당구장,당구장,서울특별시 용산구 청파동1가 청파로,스트레스 해소; 감정 자극,37.5470902,126.9699215
신월스포츠클럽,헬스/휘트니스,서울특별시 양천구 신월동 남부순환로,스트레스 해소; 감정 자극,37.5327968,126.8304943
태양헬스,헬스/휘트니스,서울특별시 마포구 염리동 백범로,스트레스 해소; 감정 자극,37.5469828,126.9440556
염리당구장,당구장,서울특별시 마포구 염리동 백범로,스트레스 해소; 감정 자극,37.5469828,126.9440556
도덕당구장,당구장,서울특별시 용산구 후암동 후암로,스트레스 해소; 감정 자극,37.551661,126.9769176
럭셔리당구장,당구장,서울특별시 영등포구 양평동4가 양평로,스트레스 해소; 감정 자극,37.5388277,126.8911509
세종당구클럽,당구장,서울특별시 금천구 시흥동 금하로23길,스트레스 해소; 감정 자극,37.4521861,126.908707
딱구당구클럽,당구장,서울특별시 동대문구 장안동 답십리로,스트레스 해소; 감정 자극,37.572099,127.0705785
구기탁구장,탁구장,서울특별시 종로구 구기동 진흥로,에너지 회복; 스트레스 해소,37.6085043,126.9555665
스카이탁구클럽,탁구장,서울특별시 동대문구 장안동 답십리로64길,에너지 회복; 스트레스 해소,37.5679346,127.0650091
퍼펙트당구장,당구장,서울특별시 구로구 고척동 경인로47길,스트레스 해소; 감정 자극,37.5047342,126.8627642
한스당구장,당구장,서울특별시 구로구 고척동 경인로47길,스트레스 해소; 감정 자극,37.5047342,126.8627642
캠퍼스당구장,당구장,서울특별시 구로구 고척동 중앙로6길,스트레스 해소; 감정 자극,37.500152,126.8667365
제이에스스크린골프,실내골프/스크린골프,서울특별시 노원구 월계동 월계로,에너지 회복; 스트레스 해소,37.6283901,127.0562051
도화당구장,당구장,서울특별시 마포구 도화동 도화길,스트레스 해소; 감정 자극,37.5391684,126.9467766
우리탁구,탁구장,서울특별시 강동구 둔촌동 명일로13길,에너지 회복; 스트레스 해소,37.533638,127.1433453
영일당구장,당구장,서울특별시 영등포구 양평동1가 영등포로13길,스트레스 해소; 감정 자극,37.5237769,126.889201
코빌당구장,당구장,서울특별시 영등포구 양평동1가 선유로,스트레스 해소; 감정 자극,37.527316,126.8913092
알까기,당구장,서울특별시 강남구 삼성동 봉은사로,스트레스 해소; 감정 자극,37.5136222,127.0567549
중앙헬스,헬스/휘트니스,서울특별시 동대문구 장안동 한천로20길,스트레스 해소; 감정 자극,37.5694941,127.0650873
리스2000당구장,당구장,서울특별시 용산구 서계동 청파로89길,스트레스 해소; 감정 자극,37.5532796,126.9676847
대성당구클럽,당구장,서울특별시 서초구 방배동 효령로,스트레스 해소; 감정 자극,37.4821306,127.0015505
밥풀당구장,당구장,서울특별시 은평구 대조동 서오릉로,스트레스 해소; 감정 자극,37.6101479,126.9190402
대박당구,당구장,서울특별시 관악구 남현동 남현1길,스트레스 해소; 감정 자극,37.4758652,126.9794501
텐당구장,당구장,서울특별시 금천구 시흥동 시흥대로,스트레스 해소; 감정 자극,37.4479738,126.9033279
자이안트당구장,당구장,서울특별시 노원구 공릉동 공릉로,스트레스 해소; 감정 자극,37.6264226,127.07998
한성클럽,당구장,서울특별시 관악구 봉천동 남부순환로,스트레스 해소; 감정 자극,37.482104,126.9491729
당구공간,당구장,서울특별시 양천구 신월동 곰달래로5길,스트레스 해소; 감정 자극,37.5333697,126.8318545
온수당구장,당구장,서울특별시 구로구 온수동 부일로1가길,스트레스 해소; 감정 자극,37.4924293,126.8184933
올빼미당구장,당구장,서울특별시 구로구 온수동 경인로3길,스트레스 해소; 감정 자극,37.4913233,126.8264177
덕성당구클럽,당구장,서울특별시 관악구 봉천동 봉천로,스트레스 해소; 감정 자극,37.4826787,126.9495443
커플당구장,당구장,서울특별시 노원구 하계동 공릉로,스트레스 해소; 감정 자극,37.6334452,127.072154
평화당구장,당구장,서울특별시 관악구 봉천동 봉천로,스트레스 해소; 감정 자극,37.4826787,126.9495443
한신탁구장,탁구장,서울특별시 노원구 상계동 한글비석로,에너지 회복; 스트레스 해소,37.6604332,127.0719118
용강헬스크럽,헬스/휘트니스,서울특별시 마포구 용강동 토정로32길,스트레스 해소; 감정 자극,37.5398814,126.9417228
상암탁구클럽,탁구장,서울특별시 은평구 수색동 수색로,에너지 회복; 스트레스 해소,37.5842462,126.8910649
산소방웰빙헬스,헬스/휘트니스,서울특별시 노원구 공릉동 공릉로46길,스트레스 해소; 감정 자극,37.6275126,127.0821299
용강당구장,당구장,서울특별시 마포구 용강동 토정로32길,스트레스 해소; 감정 자극,37.5398814,126.9417228
까치당구장,당구장,서울특별시 노원구 상계동 상계로,스트레스 해소; 감정 자극,37.662197,127.0747824
세븐당구,당구장,서울특별시 양천구 신월동 곰달래로,스트레스 해소; 감정 자극,37.5302798,126.8326926
유진헬스피아,헬스/휘트니스,서울특별시 양천구 신월동 곰달래로14길,스트레스 해소; 감정 자극,37.5287724,126.8383374
오지스크린골프,실내골프/스크린골프,서울특별시 노원구 월계동 초안산로5길,에너지 회복; 스트레스 해소,37.6322812,127.0495706
24시포켓볼,당구장,서울특별시 양천구 신월동 월정로,스트레스 해소; 감정 자극,37.532924,126.8363283
창원당구장,당구장,서울특별시 강북구 우이동 삼양로,스트레스 해소; 감정 자극,37.6622265,127.0130731
패카2당구장,당구장,서울특별시 중구 필동3가 퇴계로44길,스트레스 해소; 감정 자극,37.561078,126.9969363
오페라당구장,당구장,서울특별시 동작구 상도동 상도로,스트레스 해소; 감정 자극,37.5030223,126.9360156
신협헬스크럽,헬스/휘트니스,서울특별시 동작구 상도동 상도로,스트레스 해소; 감정 자극,37.5030223,126.9360156
행운당구장,당구장,서울특별시 은평구 증산동 증산로9길,스트레스 해소; 감정 자극,37.5850258,126.9096068
바울당구장,당구장,서울특별시 강동구 성내동 성내로,스트레스 해소; 감정 자극,37.5287555,127.1254049
고인돌당구장,당구장,서울특별시 금천구 독산동 시흥대로,스트레스 해소; 감정 자극,37.4684383,126.8980548
케이당구장,당구장,서울특별시 도봉구 방학동 도당로,스트레스 해소; 감정 자극,37.666259,127.0380315
골프스쿨,실내골프/스크린골프,서울특별시 노원구 하계동 노원로,에너지 회복; 스트레스 해소,37.6390332,127.0747167
규수당스포츠센터,헬스/휘트니스,서울특별시 마포구 서교동 양화로,스트레스 해소; 감정 자극,37.5511835,126.9159825
다우당구클럽,당구장,서울특별시 마포구 서교동 홍익로,스트레스 해소; 감정 자극,37.5535906,126.9233991
미진당구장,당구장,서울특별시 동작구 상도1동 상도로,스트레스 해소; 감정 자극,37.4937444,126.9558541
엘리트당구클럽,당구장,서울특별시 동작구 상도동 상도로,스트레스 해소; 감정 자극,37.5030223,126.9360156
제이필드골프클럽,실내골프/스크린골프,서울특별시 영등포구 도림동 도림로,에너지 회복; 스트레스 해소,37.5080929,126.9000402
프라임당구클럽,당구장,서울특별시 금천구 독산동 독산로,스트레스 해소; 감정 자극,37.4686271,126.9022919
맥스짐,헬스/휘트니스,서울특별시 마포구 서교동 잔다리로,스트레스 해소; 감정 자극,37.5569376,126.9141526
범진복싱체육관,지역실내체육관,서울특별시 금천구 시흥동 은행나무로,에너지 회복; 스트레스 해소,37.4510014,126.9062624
국제당구장,당구장,서울특별시 금천구 시흥동 독산로,스트레스 해소; 감정 자극,37.4491111,126.9050265
프라임탁구클럽,탁구장,서울특별시 마포구 성산동 월드컵로,에너지 회복; 스트레스 해소,37.565398,126.9014552
당구재미,당구장,서울특별시 금천구 시흥동 탑골로,스트레스 해소; 감정 자극,37.4518965,126.9136646
초이스당구클럽,당구장,서울특별시 노원구 상계동 상계로,스트레스 해소; 감정 자극,37.662197,127.0747824
씨엔엔당구,당구장,서울특별시 구로구 궁동 부일로15가길,스트레스 해소; 감정 자극,37.4939686,126.832787
한콜당구장,당구장,서울특별시 금천구 시흥동 시흥대로,스트레스 해소; 감정 자극,37.4479738,126.9033279
연화헬스,헬스/휘트니스,서울특별시 양천구 신월동 곰달래로5길,스트레스 해소; 감정 자극,37.5333697,126.8318545
트윈빌당구장,당구장,서울특별시 양천구 목동 목동동로,스트레스 해소; 감정 자극,37.5352107,126.8793143
황금당구장,당구장,서울특별시 노원구 상계동 상계로,스트레스 해소; 감정 자극,37.662197,127.0747824
건호당구장,당구장,서울특별시 노원구 상계동 한글비석로,스트레스 해소; 감정 자극,37.6604332,127.0719118
빅토리헬스클럽,헬스/휘트니스,서울특별시 노원구 상계동 한글비석로,스트레스 해소; 감정 자극,37.6604332,127.0719118
라이온당구장,당구장,서울특별시 노원구 월계동 월계로,스트레스 해소; 감정 자극,37.6283901,127.0562051
대물실내낚시터,실내낚시터,서울특별시 구로구 가리봉동 구로동로,안정감; 감정 정화,37.4828085,126.8864791
챔프2당구장,당구장,서울특별시 영등포구 영등포동5가 영중로20길,스트레스 해소; 감정 자극,37.5212657,126.9069817
동원당구클럽,당구장,서울특별시 금천구 시흥동 금하로24길,스트레스 해소; 감정 자극,37.4486647,126.9085421
IT휘트니스,헬스/휘트니스,서울특별시 금천구 가산동 가산디지털2로,스트레스 해소; 감정 자극,37.4820799,126.8781353
라비앙휘트니스,헬스/휘트니스,서울특별시 노원구 중계동 중계로,스트레스 해소; 감정 자극,37.6462131,127.0816428
매직핸드포켓클럽,당구장,서울특별시 서대문구 대현동 이화여대1안길,스트레스 해소; 감정 자극,37.5576266,126.9440733
날마다당구장,당구장,서울특별시 강서구 화곡동 화곡로,스트레스 해소; 감정 자극,37.5414074,126.8415864
사이버당구장,당구장,서울특별시 강서구 화곡동 화곡로,스트레스 해소; 감정 자극,37.5414074,126.8415864
이슈당구클럽,당구장,서울특별시 강서구 화곡동 화곡로,스트레스 해소; 감정 자극,37.5414074,126.8415864
코베휘트니스,헬스/휘트니스,서울특별시 성동구 행당동 왕십리로21길,스트레스 해소; 감정 자극,37.5598419,127.0317946
승일당구클럽,당구장,서울특별시 성동구 도선동 무학로2길,스트레스 해소; 감정 자극,37.5632681,127.0337527
헬포츠헬스,헬스/휘트니스,서울특별시 동작구 상도동 상도로,스트레스 해소; 감정 자극,37.5030223,126.9360156
씨제이당구클럽,당구장,서울특별시 강동구 천호동 구천면로,스트레스 해소; 감정 자극,37.5469479,127.1339475
시대당구장,당구장,서울특별시 중구 서소문동 세종대로11길,스트레스 해소; 감정 자극,37.5620898,126.9739215
공구당구장,당구장,서울특별시 구로구 고척동 경인로43길,스트레스 해소; 감정 자극,37.4988796,126.8600066
돼지당구장,당구장,서울특별시 강동구 천호동 올림픽로,스트레스 해소; 감정 자극,37.5440698,127.1253545
노니헬스,헬스/휘트니스,서울특별시 도봉구 창동 노해로,스트레스 해소; 감정 자극,37.6511814,127.0371671
청호당구클럽,당구장,서울특별시 강서구 등촌동 공항대로,스트레스 해소; 감정 자극,37.5531018,126.8600764
라인당구장,당구장,서울특별시 종로구 효제동 대학로3길,스트레스 해소; 감정 자극,37.5741631,127.0012783
동문당구클럽,당구장,서울특별시 영등포구 대림동 도신로4길,스트레스 해소; 감정 자극,37.502415,126.8959218
조이헬스클럽,헬스/휘트니스,서울특별시 영등포구 대림동 대림로,스트레스 해소; 감정 자극,37.5019187,126.8968464
플러스휘트니스클럽,헬스/휘트니스,서울특별시 성북구 종암동 종암로,스트레스 해소; 감정 자극,37.599462,127.0342569
썬스크린골프존,실내골프/스크린골프,서울특별시 도봉구 창동 덕릉로,에너지 회복; 스트레스 해소,37.6454458,127.0491428
준당구클럽,당구장,서울특별시 도봉구 창동 덕릉로,스트레스 해소; 감정 자극,37.6454458,127.0491428
공공칠당구클럽,당구장,서울특별시 도봉구 창동 덕릉로,스트레스 해소; 감정 자극,37.6454458,127.0491428
시티당구장,당구장,서울특별시 도봉구 창동 덕릉로,스트레스 해소; 감정 자극,37.6454458,127.0491428
이삼사당구장,당구장,서울특별시 종로구 관철동 우정국로2길,스트레스 해소; 감정 자극,37.5695618,126.9843029
푸르지오스크린골프,실내골프/스크린골프,서울특별시 영등포구 영등포동8가 영중로,에너지 회복; 스트레스 해소,37.5281889,126.904769
코엑스스크린골프,실내골프/스크린골프,서울특별시 강남구 삼성동 테헤란로87길,에너지 회복; 스트레스 해소,37.5086166,127.0589795
한스남여헬스타운,헬스/휘트니스,서울특별시 성북구 장위동 장위로,스트레스 해소; 감정 자극,37.6141289,127.0520799
필,당구장,서울특별시 강남구 논현동 강남대로132길,스트레스 해소; 감정 자극,37.5126947,127.0236273
정우당구장,당구장,서울특별시 성북구 종암동 종암로,스트레스 해소; 감정 자극,37.599462,127.0342569
코리아당구클럽,당구장,서울특별시 강서구 방화동 금낭화로,스트레스 해소; 감정 자극,37.5799066,126.8109245
프리남여헬스,헬스/휘트니스,서울특별시 성북구 동선동1가 동소문로,스트레스 해소; 감정 자극,37.5935458,127.017058
엠에스당구장,당구장,서울특별시 성북구 동선동1가 동소문로24길,스트레스 해소; 감정 자극,37.593069,127.0188525
클럽마니아,당구장,서울특별시 강서구 내발산동 강서로,스트레스 해소; 감정 자극,37.5507788,126.8363291
빅토리당구장,당구장,서울특별시 강북구 미아동 도봉로,스트레스 해소; 감정 자극,37.6308331,127.024486
스포츠포켓볼,당구장,서울특별시 마포구 망원동 망원로,스트레스 해소; 감정 자극,37.5555526,126.8969844
땡구르당구장,당구장,서울특별시 서대문구 남가좌동 거북골로,스트레스 해소; 감정 자극,37.5769296,126.9216449
마이큐당구장,당구장,서울특별시 강남구 청담동 도산대로,스트레스 해소; 감정 자극,37.5244899,127.0502131
콩고피트니스,헬스/휘트니스,서울특별시 강남구 논현동 학동로,스트레스 해소; 감정 자극,37.5120112,127.0241112
에이당구클럽,당구장,서울특별시 마포구 신수동 토정로,스트레스 해소; 감정 자극,37.5450319,126.933469
논현힐스크린골프,실내골프/스크린골프,서울특별시 강남구 논현동 논현로131길,에너지 회복; 스트레스 해소,37.5143628,127.0293262
백두산당구클럽,당구장,서울특별시 강북구 수유동 삼양로,스트레스 해소; 감정 자극,37.6353867,127.0170277
퓨휘트니스,헬스/휘트니스,서울특별시 강남구 역삼동 언주로,스트레스 해소; 감정 자극,37.4963919,127.0458068
다성당구장,당구장,서울특별시 강북구 수유동 삼양로,스트레스 해소; 감정 자극,37.6353867,127.0170277
왕실당구장,당구장,서울특별시 양천구 신월동 곰달래로,스트레스 해소; 감정 자극,37.5296216,126.8345454
고릴라멀티짐,헬스/휘트니스,서울특별시 동대문구 장안동 답십리로72길,스트레스 해소; 감정 자극,37.5687352,127.0728784
원당구클럽,당구장,서울특별시 동작구 신대방동 보라매로,스트레스 해소; 감정 자극,37.4956148,126.9275507
신재국탁구클럽,탁구장,서울특별시 관악구 봉천동 관악로,에너지 회복; 스트레스 해소,37.4812588,126.9527443
프라임골프클럽,실내골프/스크린골프,서울특별시 양천구 신월동 남부순환로,에너지 회복; 스트레스 해소,37.5327968,126.8304943
힐탑이십사,당구장,서울특별시 강남구 논현동 논현로,스트레스 해소; 감정 자극,37.5181326,127.0287585
예스,당구장,서울특별시 서초구 서초동 사임당로,스트레스 해소; 감정 자극,37.489154,127.0172282
레드콩고휘트니스,헬스/휘트니스,서울특별시 동작구 노량진동 노량진로,스트레스 해소; 감정 자극,37.5138502,126.9445794
학사당구장,당구장,서울특별시 성북구 종암동 종암로21길,스트레스 해소; 감정 자극,37.6018951,127.031225
에버헬스,헬스/휘트니스,서울특별시 강북구 미아동 도봉로,스트레스 해소; 감정 자극,37.6227994,127.0275119
명화당구장,당구장,서울특별시 영등포구 영등포동2가 버드나루로,스트레스 해소; 감정 자극,37.5183756,126.9123613
아이큐당구장,당구장,서울특별시 강서구 화곡동 화곡로,스트레스 해소; 감정 자극,37.5421164,126.8424938
현대스크린골프연습장,실내골프/스크린골프,서울특별시 중랑구 면목동 용마산로,에너지 회복; 스트레스 해소,37.5815926,127.0939102
금호실내골프연습장,실내골프/스크린골프,서울특별시 중랑구 면목동 용마산로,에너지 회복; 스트레스 해소,37.5815926,127.0939102
돈당구클럽,당구장,서울특별시 중랑구 망우동 용마산로115길,스트레스 해소; 감정 자극,37.5985991,127.0977219
미스터큐당구장,당구장,서울특별시 중랑구 면목동 사가정로,스트레스 해소; 감정 자극,37.5810816,127.0843842
챠밍여성헬스,헬스/휘트니스,서울특별시 성북구 동소문동2가 동소문로,스트레스 해소; 감정 자극,37.5891041,127.0077655
동강실내낚시터,실내낚시터,서울특별시 중랑구 면목동 면목로,안정감; 감정 정화,37.5816841,127.0886238
청무체육관,지역체육센터,서울특별시 광진구 군자동 광나루로,에너지 회복; 스트레스 해소,37.5480431,127.0707996
우리들당구장,당구장,서울특별시 중랑구 면목동 면목로,스트레스 해소; 감정 자극,37.5816841,127.0886238
썬휘트니스,헬스/휘트니스,서울특별시 광진구 자양동 뚝섬로,스트레스 해소; 감정 자극,37.5352838,127.0684803
건국당구장,당구장,서울특별시 광진구 자양동 아차산로,스트레스 해소; 감정 자극,37.5388422,127.0738801
신나는락볼링,볼링장,서울특별시 도봉구 방학동 도당로,스트레스 해소; 감정 자극,37.666259,127.0380315
쵸이스당구장,당구장,서울특별시 관악구 봉천동 관악로,스트레스 해소; 감정 자극,37.4812588,126.9527443
센터원웰니스,헬스/휘트니스,서울특별시 중구 수하동 을지로5길,스트레스 해소; 감정 자극,37.5668867,126.9844833
토마토GYM,헬스/휘트니스,서울특별시 구로구 구로동 경인로,스트레스 해소; 감정 자극,37.5003017,126.8758793
재미짐휘트니스,헬스/휘트니스,서울특별시 강남구 신사동 도산대로11길,스트레스 해소; 감정 자극,37.5197958,127.0223498
송파아우름체육센터,게이트볼장,서울특별시 송파구 거여동 ,안정감; 사회적 연결,37.490687,127.146916
월드컵공원난지천공원축구장,지역축구장,서울특별시 마포구 상암동 월드컵로,에너지 회복; 스트레스 해소,37.5752789,126.8845386
SP당구클럽,당구장,서울특별시 송파구 석촌동 가락로,스트레스 해소; 감정 자극,37.5005742,127.1070344
매헌시민의숲양재천야외수영장,일반수영장,서울특별시 서초구 양재동 ,에너지 회복; 안정감,37.4690298,127.0387937
매헌시민의숲양재실내테니스장,지역실내체육관,서울특별시 서초구 양재동 매헌로,에너지 회복; 스트레스 해소,37.4685166,127.0363487
잠실실내스키장,기타레포츠,서울특별시 송파구 송파동 오금로,스트레스 해소; 감정 자극,37.5089417,127.1146343
킹콩헬스장,헬스/휘트니스,서울특별시 강동구 길동 양재대로116길,스트레스 해소; 감정 자극,37.5380844,127.1431788
이스카이골프존,실내골프/스크린골프,서울특별시 강서구 공항동 공항대로,에너지 회복; 스트레스 해소,37.5596503,126.8264711
유휘트니스,헬스/휘트니스,서울특별시 강남구 압구정동 압구정로,스트레스 해소; 감정 자극,37.52735,127.0288606
랜드골프존스크린,실내골프/스크린골프,서울특별시 용산구 원효로3가 청파로,에너지 회복; 스트레스 해소,37.5310865,126.953118
스타골프존,실내골프/스크린골프,서울특별시 관악구 봉천동 남부순환로,에너지 회복; 스트레스 해소,37.482356,126.9492131
한림스크린골프존,실내골프/스크린골프,서울특별시 영등포구 영등포동2가 국회대로54길,에너지 회복; 스트레스 해소,37.5220798,126.9101365
골프존25,실내골프/스크린골프,서울특별시 서초구 서초동 서초대로,에너지 회복; 스트레스 해소,37.4941925,127.0156185
골프존드라이빙레인지,실내골프/스크린골프,서울특별시 마포구 공덕동 마포대로,에너지 회복; 스트레스 해소,37.5450525,126.951996
강서탑골프존,실내골프/스크린골프,서울특별시 강서구 염창동 공항대로71길,에너지 회복; 스트레스 해소,37.5482585,126.8723137
효창스크린골프,실내골프/스크린골프,서울특별시 용산구 청파동3가 효창원로,에너지 회복; 스트레스 해소,37.5425527,126.9621542
발할라스크린골프,실내골프/스크린골프,서울특별시 동작구 흑석동 현충로,에너지 회복; 스트레스 해소,37.5056504,126.9712744
퀸메르디앙스크린골프,실내골프/스크린골프,서울특별시 영등포구 양평동3가 양산로,에너지 회복; 스트레스 해소,37.5258921,126.8897241
꿈의숲스크린골프,실내골프/스크린골프,서울특별시 성북구 석관동 화랑로,에너지 회복; 스트레스 해소,37.6082012,127.0521212
노블스크린골프,실내골프/스크린골프,서울특별시 동대문구 신설동 천호대로,에너지 회복; 스트레스 해소,37.5728697,127.0273972
신당스크린골프,실내골프/스크린골프,서울특별시 중구 신당동 다산로40길,에너지 회복; 스트레스 해소,37.563682,127.0177278
홍대스크린골프,실내골프/스크린골프,서울특별시 마포구 동교동 양화로,에너지 회복; 스트레스 해소,37.5583347,126.9255789
동아스크린골프,실내골프/스크린골프,서울특별시 강동구 천호동 구천면로,에너지 회복; 스트레스 해소,37.54128,127.1213912
구상스크린골프,실내골프/스크린골프,서울특별시 강남구 대치동 영동대로,에너지 회복; 스트레스 해소,37.5007921,127.0674242
랜드스크린골프,실내골프/스크린골프,서울특별시 강남구 논현동 학동로,에너지 회복; 스트레스 해소,37.5125721,127.0263956
꿈강스크린골프,실내골프/스크린골프,서울특별시 강남구 청담동 도산대로,에너지 회복; 스트레스 해소,37.5244899,127.0502131
유존스크린골프,실내골프/스크린골프,서울특별시 강남구 역삼동 논현로86길,에너지 회복; 스트레스 해소,37.4996847,127.0385641
나인스크린골프,실내골프/스크린골프,서울특별시 송파구 잠실동 석촌호수로,에너지 회복; 스트레스 해소,37.5139175,127.0849709
뉴캐슬스크린골프,실내골프/스크린골프,서울특별시 중구 황학동 청계천로,에너지 회복; 스트레스 해소,37.5716812,127.0211718
블루스크린골프,실내골프/스크린골프,서울특별시 중구 무교동 무교로,에너지 회복; 스트레스 해소,37.5675337,126.9792257
원일스크린골프,실내골프/스크린골프,서울특별시 강동구 둔촌동 양재대로,에너지 회복; 스트레스 해소,37.5312359,127.138644
스팍스크린골프,실내골프/스크린골프,서울특별시 강남구 수서동 광평로51길,에너지 회복; 스트레스 해소,37.4901459,127.1014286
명동힐스크린골프,실내골프/스크린골프,서울특별시 중구 명동2가 명동4길,에너지 회복; 스트레스 해소,37.5626116,126.9840352
재림스크린골프,실내골프/스크린골프,서울특별시 종로구 인의동 창경궁로,에너지 회복; 스트레스 해소,37.5761711,126.9972919
팰리스스크린골프,실내골프/스크린골프,서울특별시 중구 정동 정동길,에너지 회복; 스트레스 해소,37.5665663,126.9709728
홀인원스크린골프,실내골프/스크린골프,서울특별시 강남구 도곡동 논현로,에너지 회복; 스트레스 해소,37.4891276,127.0414746
W스크린골프,실내골프/스크린골프,서울특별시 노원구 월계동 마들로,에너지 회복; 스트레스 해소,37.6369255,127.0581181
뮤즈스크린골프,실내골프/스크린골프,서울특별시 송파구 석촌동 송파대로45길,에너지 회복; 스트레스 해소,37.5069995,127.1049407
매직스크린골프,실내골프/스크린골프,서울특별시 마포구 공덕동 마포대로,에너지 회복; 스트레스 해소,37.5450525,126.951996
묵동다목적체육관,지역실내체육관,서울특별시 중랑구 묵동 ,에너지 회복; 스트레스 해소,37.6127705,127.07852
육사체육관,스포츠센터,서울특별시 노원구 공릉동 ,에너지 회복; 스트레스 해소,37.6302151,127.0872902
충암볼링장,볼링장,서울특별시 서대문구 남가좌동 명지대길,스트레스 해소; 감정 자극,37.5803014,126.9250688
킴즈볼링센터,볼링장,서울특별시 종로구 원남동 창경궁로,스트레스 해소; 감정 자극,37.5761711,126.9972919
창동JJ볼링센타,볼링장,서울특별시 도봉구 창동 해등로,스트레스 해소; 감정 자극,37.64872,127.04295
24시볼링장,볼링장,서울특별시 강남구 논현동 논현로,스트레스 해소; 감정 자극,37.5140379,127.0306696
대성볼링센터,볼링장,서울특별시 광진구 중곡동 용마산로,스트레스 해소; 감정 자극,37.5633231,127.0869713
로얄볼링센터,볼링장,서울특별시 영등포구 당산동1가 영등포로28길,스트레스 해소; 감정 자극,37.5198044,126.8986546
정석골프연습장,실외골프연습장,서울특별시 강남구 삼성동 봉은사로,에너지 회복; 스트레스 해소,37.5135682,127.05643
한남실내골프연습장,실외골프연습장,서울특별시 용산구 한남동 독서당로,에너지 회복; 스트레스 해소,37.5311428,127.0077013
최인자골프연습장,실외골프연습장,서울특별시 서초구 서초동 서초대로,에너지 회복; 스트레스 해소,37.4941925,127.0156185
한남골프연습장,실외골프연습장,서울특별시 영등포구 대림동 대림로,에너지 회복; 스트레스 해소,37.50165,126.89696
원일골프연습장,실외골프연습장,서울특별시 강남구 대치동 도곡로,에너지 회복; 스트레스 해소,37.5001811,127.0648705
대림프라자골프연습장,실외골프연습장,서울특별시 동작구 사당동 사당로17길,에너지 회복; 스트레스 해소,37.4849392,126.9734668
크로스핏페인스톰,헬스/휘트니스,서울특별시 강남구 신사동 논현로176길,스트레스 해소; 감정 자극,37.5272642,127.0299548
성일문화체육센터,지역체육센터,서울특별시 강동구 성내동 성내로15길,에너지 회복; 스트레스 해소,37.5279455,127.1284946
마린스포츠센터,헬스/휘트니스,서울특별시 노원구 하계동 한글비석로,스트레스 해소; 감정 자극,37.6378798,127.0716273
역발산스포츠센터,헬스/휘트니스,서울특별시 광진구 화양동 능동로13길,스트레스 해소; 감정 자극,37.54449,127.0694089
월드스포츠센터,헬스/휘트니스,서울특별시 송파구 마천동 마천로,스트레스 해소; 감정 자극,37.5005598,127.1434527
래미안스포츠센터,헬스/휘트니스,서울특별시 성북구 길음동 길음로,스트레스 해소; 감정 자극,37.6119258,127.0177731
일이삼스포츠센터,헬스/휘트니스,서울특별시 구로구 고척동 경인로,스트레스 해소; 감정 자극,37.4973462,126.8640144
아동스포츠센터,헬스/휘트니스,서울특별시 서대문구 연희동 성산로17길,스트레스 해소; 감정 자극,37.5636536,126.9310434
GMC스포츠센터,헬스/휘트니스,서울특별시 성북구 길음동 삼양로,스트레스 해소; 감정 자극,37.6097987,127.0220277
리첸스포츠센터,헬스/휘트니스,서울특별시 영등포구 여의도동 여의동로,스트레스 해소; 감정 자극,37.5275704,126.9316012
애시앙스포츠센터,헬스/휘트니스,서울특별시 양천구 목동 목동동로,스트레스 해소; 감정 자극,37.5352107,126.8793143
성북생활체육공설운동장,공설/시민운동장,서울특별시 성북구 하월곡동 화랑로13길,에너지 회복; 스트레스 해소,37.6049919,127.0417441
잠실스케이트장,스케이트장,서울특별시 송파구 잠실동 한가람로,에너지 회복; 스트레스 해소,37.5162538,127.084166
독산동잔디축구장,지역축구장,서울특별시 금천구 독산동 범안로,에너지 회복; 스트레스 해소,37.4671493,126.8986621
월곡인조잔디축구장,지역축구장,서울특별시 성북구 하월곡동 화랑로13길,에너지 회복; 스트레스 해소,37.6049919,127.0417441
삼정수영장,일반수영장,서울특별시 은평구 대조동 서오릉로,에너지 회복; 안정감,37.6103592,126.9203192
세이브존스포츠센터수영장,일반수영장,서울특별시 노원구 하계동 한글비석로,에너지 회복; 안정감,37.6378798,127.0716273
모아방골프클리닉,실내골프/스크린골프,서울특별시 성북구 정릉동 정릉로,에너지 회복; 스트레스 해소,37.6115357,126.9920998
신라호텔수영장,일반수영장,서울특별시 중구 장충동2가 동호로,에너지 회복; 안정감,37.5590508,127.0055569
금성볼링센타,볼링장,서울특별시 서초구 서초동 서초중앙로,스트레스 해소; 감정 자극,37.4875105,127.0148124
신영무에타이체육관,지역실내체육관,서울특별시 동대문구 전농동 사가정로,에너지 회복; 스트레스 해소,37.5747671,127.0536195
여의도스포츠센터,헬스/휘트니스,서울특별시 영등포구 여의도동 국제금융로8길,스트레스 해소; 감정 자극,37.5208483,126.9273843
K앤G스크린골프,실내골프/스크린골프,서울특별시 강동구 천호동 상암로,에너지 회복; 스트레스 해소,37.54856,127.13117
베스트스크린골프,실내골프/스크린골프,서울특별시 영등포구 양평동4가 선유로47길,에너지 회복; 스트레스 해소,37.5354698,126.8955945
위더스휘트니스,헬스/휘트니스,서울특별시 동대문구 전농동 사가정로,스트레스 해소; 감정 자극,37.5747671,127.0536195
캘러웨이스크린골프,실내골프/스크린골프,서울특별시 강남구 논현동 논현로,에너지 회복; 스트레스 해소,37.5140379,127.0306696
스포짐휘트니스,헬스/휘트니스,서울특별시 종로구 내수동 사직로8길,스트레스 해소; 감정 자극,37.5740414,126.9726915
매헌시민의숲양재천수영장,일반수영장,서울특별시 서초구 양재동 매헌로,에너지 회복; 안정감,37.468619,127.0365095
엠베이스볼,야구연습장,서울특별시 동대문구 신설동 왕산로,에너지 회복; 스트레스 해소,37.5762161,127.0254329
영롱이갈대구장1,지역축구장,서울특별시 영등포구 양화동 ,에너지 회복; 스트레스 해소,37.5471911,126.8861329
뉴에라베이스볼아카데미,야구연습장,서울특별시 영등포구 문래동6가 문래로,에너지 회복; 스트레스 해소,37.5206104,126.8884375
양재천얼음썰매장,눈썰매장,서울특별시 강남구 개포동 ,감정 자극; 스트레스 해소,37.4891009,127.0660428
여우당구장,당구장,서울특별시 광진구 중곡동 영화사로,스트레스 해소; 감정 자극,37.5563216,127.0912831
영등포리틀야구장,지역야구장,서울특별시 영등포구 양화동 ,에너지 회복; 스트레스 해소,37.5471911,126.8861329
영롱이갈대구장2,지역축구장,서울특별시 영등포구 양화동 ,에너지 회복; 스트레스 해소,37.5471911,126.8861329
에이앤에스스포츠,스포츠센터,서울특별시 동작구 상도1동 양녕로,에너지 회복; 스트레스 해소,37.505297,126.950465
강감찬스케이트장,스케이트장,서울특별시 관악구 봉천동 ,에너지 회복; 스트레스 해소,37.4750064,126.9571404
어린이대공원눈썰매장,눈썰매장,서울특별시 광진구 능동 능동로,감정 자극; 스트레스 해소,37.5555682,127.0786459
썬씨티스크린골프장,실내골프/스크린골프,서울특별시 마포구 용강동 토정로,에너지 회복; 스트레스 해소,37.5423025,126.9397168
일자산눈썰매장,눈썰매장,서울특별시 강동구 둔촌동 ,감정 자극; 스트레스 해소,37.5278024,127.1362433
월드컵공원눈썰매장,눈썰매장,서울특별시 마포구 상암동 하늘공원로,감정 자극; 스트레스 해소,37.573,126.88329
사당종합체육관,대형실내체육관,서울특별시 동작구 사당동 사당로27길,에너지 회복; 스트레스 해소,37.4916009,126.9708709
6TEAM,헬스/휘트니스,서울특별시 성동구 금호동1가 금호로,스트레스 해소; 감정 자극,37.5534,127.02199
마이핏휘트니스,헬스/휘트니스,서울특별시 서초구 잠원동 강남대로,스트레스 해소; 감정 자극,37.518697,127.0187164
디자인휘트니스,헬스/휘트니스,서울특별시 중구 태평로2가 덕수궁길,스트레스 해소; 감정 자극,37.566586,126.9734531
크로스핏라임라잇,헬스/휘트니스,서울특별시 강남구 신사동 언주로168길,스트레스 해소; 감정 자극,37.5262555,127.0350992
에이치짐,헬스/휘트니스,서울특별시 강동구 명일동 구천면로,스트레스 해소; 감정 자극,37.5491474,127.1514205
피에스타휘트니스,헬스/휘트니스,서울특별시 강남구 역삼동 언주로,스트레스 해소; 감정 자극,37.4963919,127.0458068
에이팀,헬스/휘트니스,서울특별시 강남구 역삼동 언주로,스트레스 해소; 감정 자극,37.4963919,127.0458068
퀸즈PT,헬스/휘트니스,서울특별시 광진구 화양동 동일로24길,스트레스 해소; 감정 자극,37.5431081,127.0682804
쌍떼휘트니스,헬스/휘트니스,서울특별시 송파구 가락동 송파대로28길,스트레스 해소; 감정 자극,37.494596,127.1205972
최종윤의복싱클럽,지역실내체육관,서울특별시 관악구 신림동 남부순환로,에너지 회복; 스트레스 해소,37.4842903,126.9297814
리얼핏,헬스/휘트니스,서울특별시 강남구 논현동 학동로,스트레스 해소; 감정 자극,37.5125721,127.0263956
미스터빌리아드클럽,당구장,서울특별시 영등포구 영등포동3가 영중로10길,스트레스 해소; 감정 자극,37.5188285,126.907897
스마일짐,헬스/휘트니스,서울특별시 금천구 가산동 디지털로,스트레스 해소; 감정 자극,37.4786335,126.8889287
리복크로스핏센티넬,헬스/휘트니스,서울특별시 중구 을지로2가 을지로,스트레스 해소; 감정 자극,37.566026,126.985473
한영근골프아카데미,실내골프/스크린골프,서울특별시 강남구 삼성동 봉은사로,에너지 회복; 스트레스 해소,37.5135682,127.05643
88스크린골프,실내골프/스크린골프,서울특별시 중구 주교동 청계천로,에너지 회복; 스트레스 해소,37.568923,126.9996513
리복스로스핏센티널,헬스/휘트니스,서울특별시 용산구 한남동 한남대로21길,스트레스 해소; 감정 자극,37.5339909,127.0063127
식스팀피티스튜디오,헬스/휘트니스,서울특별시 강남구 신사동 언주로172길,스트레스 해소; 감정 자극,37.5272393,127.0367434
리복크로스핏투혼,헬스/휘트니스,서울특별시 은평구 대조동 연서로,스트레스 해소; 감정 자극,37.6186641,126.9207202
퍼스트제이짐,헬스/휘트니스,서울특별시 송파구 가락동 중대로,스트레스 해소; 감정 자극,37.4984177,127.1257317
바디밸런스30,헬스/휘트니스,서울특별시 노원구 중계동 중계로14가길,스트레스 해소; 감정 자극,37.6485385,127.0817154
WPGA골프아카데미,실내골프/스크린골프,서울특별시 강남구 역삼동 언주로,에너지 회복; 스트레스 해소,37.4963919,127.0458068
이지요가,헬스/휘트니스,서울특별시 마포구 도화동 삼개로5길,스트레스 해소; 감정 자극,37.537995,126.9481947
샤크다이버,수상스포츠,서울특별시 강남구 대치동 영동대로,감정 자극; 스트레스 해소,37.5018574,127.0671243
캘리핫요가,헬스/휘트니스,서울특별시 마포구 성산동 월드컵북로,스트레스 해소; 감정 자극,37.5690037,126.9045248
희나리웰플러스,헬스/휘트니스,서울특별시 송파구 송파동 백제고분로42길,스트레스 해소; 감정 자극,37.50467,127.1108217
이강섭헬스클리닉,헬스/휘트니스,서울특별시 양천구 신월동 남부순환로,스트레스 해소; 감정 자극,37.5327968,126.8304943
바디팩토리,헬스/휘트니스,서울특별시 종로구 혜화동 혜화로,스트레스 해소; 감정 자극,37.5876466,126.999833
ATEAM,헬스/휘트니스,서울특별시 강남구 역삼동 테헤란로,스트레스 해소; 감정 자극,37.5034432,127.0458432
송파시니어클럽,헬스/휘트니스,서울특별시 송파구 송파동 백제고분로42길,스트레스 해소; 감정 자극,37.50467,127.1108217
삼원휴스포,헬스/휘트니스,서울특별시 강남구 대치동 영동대로,스트레스 해소; 감정 자극,37.5018574,127.0671243
더센터오브필라테스,헬스/휘트니스,서울특별시 강남구 역삼동 테헤란로48길,스트레스 해소; 감정 자극,37.5029974,127.0459168
하와이짐,헬스/휘트니스,서울특별시 강남구 역삼동 역삼로25길,스트레스 해소; 감정 자극,37.4975797,127.0401196
이경필베이스볼아카데미,야구연습장,서울특별시 송파구 잠실동 백제고분로,에너지 회복; 스트레스 해소,37.5142763,127.077649
GG금강스크린골프,실내골프/스크린골프,서울특별시 구로구 신도림동 신도림로,에너지 회복; 스트레스 해소,37.5081171,126.8820546
나비당구클럽,당구장,서울특별시 강서구 내발산동 공항대로,스트레스 해소; 감정 자극,37.5575909,126.842019
프로휘트니스클럽,헬스/휘트니스,서울특별시 강동구 암사동 고덕로,스트레스 해소; 감정 자극,37.554903,127.1346048
베스트스크린골프존,실내골프/스크린골프,서울특별시 강서구 등촌동 공항대로,에너지 회복; 스트레스 해소,37.5531018,126.8600764
그랜드스크린골프존9,실내골프/스크린골프,서울특별시 강서구 화곡동 ,에너지 회복; 스트레스 해소,37.542134,126.8441752
퍼니퍼니어린이전용수영장,일반수영장,서울특별시 송파구 오금동 양재대로72길,에너지 회복; 안정감,37.5091892,127.1286963
정립회관수영장,일반수영장,서울특별시 광진구 구의동 워커힐로,에너지 회복; 안정감,37.5474681,127.098195
미르스크린골프존,실내골프/스크린골프,서울특별시 강서구 화곡동 화곡로,에너지 회복; 스트레스 해소,37.5421164,126.8424938
맥스아웃휘트니스,헬스/휘트니스,서울특별시 강서구 등촌동 공항대로,스트레스 해소; 감정 자극,37.5531018,126.8600764
숨핫요가,헬스/휘트니스,서울특별시 강동구 강일동 아리수로93길,스트레스 해소; 감정 자극,37.5683065,127.1743648
곰두리체육센터수영장,일반수영장,서울특별시 송파구 오금동 동남로,에너지 회복; 안정감,37.5056449,127.1391853
동대문종합사회복지관수영장,일반수영장,서울특별시 동대문구 제기동 약령시로5길,에너지 회복; 안정감,37.5835135,127.033991
중구회현체육센터수영장,일반수영장,서울특별시 중구 회현동1가 퇴계로12길,에너지 회복; 안정감,37.5588648,126.9809209
서울리포츠센터수영장,일반수영장,서울특별시 강동구 고덕동 고덕로,에너지 회복; 안정감,37.556037,127.1455687
동작구민체육센터수영장,일반수영장,서울특별시 동작구 신대방동 여의대방로16길,에너지 회복; 안정감,37.4942544,126.9164475
구로청소년수련관수영장,일반수영장,서울특별시 구로구 구로동 구로동로,에너지 회복; 안정감,37.4860547,126.8855838
동대문구민체육센터수영장,일반수영장,서울특별시 동대문구 장안동 장안벚꽃로,에너지 회복; 안정감,37.5644149,127.0729096
궁동종합사회복지관수영장,일반수영장,서울특별시 구로구 궁동 오리로22길,에너지 회복; 안정감,37.49884,126.8311348
수휘트니스,헬스/휘트니스,서울특별시 관악구 봉천동 봉천로,스트레스 해소; 감정 자극,37.4826787,126.9495443
스타칼라휘트니스,헬스/휘트니스,서울특별시 서대문구 연희동 연희로,스트레스 해소; 감정 자극,37.5708995,126.9341606
골든타이거수영클럽,일반수영장,서울특별시 강남구 일원동 ,에너지 회복; 안정감,37.48754,127.08705
한국골프아카데미,실내골프/스크린골프,서울특별시 송파구 석촌동 백제고분로,에너지 회복; 스트레스 해소,37.5025616,127.0991797
골프존앤알바트로스,실내골프/스크린골프,서울특별시 구로구 고척동 중앙로,에너지 회복; 스트레스 해소,37.4997829,126.8641328
삼성골프앤스크린,실내골프/스크린골프,서울특별시 중구 신당동 청구로1길,에너지 회복; 스트레스 해소,37.5571517,127.0174874
뉴서울골프연습장,실내골프/스크린골프,서울특별시 송파구 마천동 성내천로,에너지 회복; 스트레스 해소,37.5012494,127.147484
김덕환골프아카데미,실내골프/스크린골프,서울특별시 양천구 목동 목동중앙로,에너지 회복; 스트레스 해소,37.5357127,126.8704635
마스터즈골프스쿨,실내골프/스크린골프,서울특별시 송파구 거여동 양산로,에너지 회복; 스트레스 해소,37.4912571,127.1436281
신촌G스크린,실내골프/스크린골프,서울특별시 마포구 노고산동 백범로,에너지 회복; 스트레스 해소,37.5549554,126.9367978
삼원휴스포수영장,헬스/휘트니스,서울특별시 강남구 도곡동 언주로,스트레스 해소; 감정 자극,37.4895722,127.0490511
경기골프,실내골프/스크린골프,서울특별시 서대문구 충정로2가 충정로,에너지 회복; 스트레스 해소,37.5593715,126.9629108
골프존REAL스크린골프,실내골프/스크린골프,서울특별시 영등포구 양평동1가 영등포로,에너지 회복; 스트레스 해소,37.523407,126.8828362
BGF골프,실내골프/스크린골프,서울특별시 강서구 방화동 금낭화로,에너지 회복; 스트레스 해소,37.5799066,126.8109245
스크린샵6골프존,실내골프/스크린골프,서울특별시 용산구 동자동 후암로,에너지 회복; 스트레스 해소,37.5538566,126.973606
사이버스크린골프,실내골프/스크린골프,서울특별시 용산구 신계동 새창로45길,에너지 회복; 스트레스 해소,37.5348943,126.9644685
키덜트골프장,실내골프/스크린골프,서울특별시 서초구 서초동 남부순환로333길,에너지 회복; 스트레스 해소,37.4841679,127.0210488
엘씨아이볼링장,볼링장,서울특별시 중구 남산동1가 퇴계로18길,스트레스 해소; 감정 자극,37.5580651,126.9844578
타이거골프클럽,실내골프/스크린골프,서울특별시 동대문구 장안동 답십리로,에너지 회복; 스트레스 해소,37.572099,127.0705785
TOP스크린골프,실내골프/스크린골프,서울특별시 서초구 방배동 방배로,에너지 회복; 스트레스 해소,37.4783113,126.9997061
대방스크린골프,실내골프/스크린골프,서울특별시 동작구 대방동 노량진로,에너지 회복; 스트레스 해소,37.5131758,126.928924
정다운스크린골프,실내골프/스크린골프,서울특별시 금천구 독산동 시흥대로,에너지 회복; 스트레스 해소,37.4669034,126.8978902
국제스파휘트니스,헬스/휘트니스,서울특별시 서초구 서초동 효령로,스트레스 해소; 감정 자극,37.4864209,127.0214463
JOHNWHITEGOLF,실내골프/스크린골프,서울특별시 강남구 청담동 도산대로81길,에너지 회복; 스트레스 해소,37.5268569,127.0467862
서울스크린골프,실내골프/스크린골프,서울특별시 종로구 구기동 진흥로,에너지 회복; 스트레스 해소,37.6086262,126.955634
J골프,실내골프/스크린골프,서울특별시 강동구 암사동 고덕로,에너지 회복; 스트레스 해소,37.554903,127.1346048
핀스크린골프,실내골프/스크린골프,서울특별시 성동구 금호동1가 난계로,에너지 회복; 스트레스 해소,37.5541786,127.0246259
잠실파크골프장,실외골프연습장,서울특별시 송파구 잠실동 올림픽로,에너지 회복; 스트레스 해소,37.5115211,127.0757714
궁당구클럽,당구장,서울특별시 마포구 서교동 동교로,스트레스 해소; 감정 자극,37.5555043,126.9202252
더스타일짐,헬스/휘트니스,서울특별시 강남구 역삼동 역삼로,스트레스 해소; 감정 자극,37.4995545,127.0478452
무지개연못실내낚시터,실내낚시터,서울특별시 성동구 성수동2가 뚝섬로,안정감; 감정 정화,37.5380483,127.0579596
라온실내골프연습장,실내골프/스크린골프,서울특별시 강남구 논현동 학동로,에너지 회복; 스트레스 해소,37.5120112,127.0241112
경복궁휘트니스,헬스/휘트니스,서울특별시 종로구 내자동 자하문로,스트레스 해소; 감정 자극,37.5779033,126.9719769
핫요가월드,헬스/휘트니스,서울특별시 도봉구 창동 노해로,스트레스 해소; 감정 자극,37.6511814,127.0371671
멀티짐휘트니스,헬스/휘트니스,서울특별시 은평구 역촌동 연서로,스트레스 해소; 감정 자극,37.6024408,126.9158238
조재명탁구교실,탁구장,서울특별시 송파구 오금동 마천로,에너지 회복; 스트레스 해소,37.5073421,127.1289918
김탁구교실,탁구장,서울특별시 송파구 삼전동 석촌호수로,에너지 회복; 스트레스 해소,37.5071463,127.0933544
한탁구클럽,탁구장,서울특별시 마포구 아현동 마포대로,에너지 회복; 스트레스 해소,37.55158,126.9556528
성내천수영장,일반수영장,서울특별시 송파구 오금동 ,에너지 회복; 안정감,37.50355,127.13379
비컴스휘트니스,헬스/휘트니스,서울특별시 양천구 목동 목동서로,스트레스 해소; 감정 자극,37.5316107,126.8751281
아이원스크린,실내골프/스크린골프,서울특별시 은평구 역촌동 진흥로1길,에너지 회복; 스트레스 해소,37.603298,126.919439
와일드짐휘트니스,헬스/휘트니스,서울특별시 노원구 상계동 상계로,스트레스 해소; 감정 자극,37.6614689,127.0739292
롯데월드웰빙센터,스포츠센터,서울특별시 송파구 잠실동 올림픽로,에너지 회복; 스트레스 해소,37.5115211,127.0757714
구로구실내체육관,지역실내체육관,서울특별시 구로구 오류동 ,에너지 회복; 스트레스 해소,37.4943466,126.8445367
K경동골프존,실내골프/스크린골프,서울특별시 동대문구 제기동 약령시로13길,에너지 회복; 스트레스 해소,37.5843518,127.0391641
J앤A골프스쿨,실내골프/스크린골프,서울특별시 중랑구 중화동 동일로,에너지 회복; 스트레스 해소,37.6019008,127.0791107
스타골프앤헬스,헬스/휘트니스,서울특별시 영등포구 영등포동3가 영등포로,스트레스 해소; 감정 자극,37.519851,126.9054732
오메가쓰리스포츠센타,헬스/휘트니스,서울특별시 중랑구 상봉동 봉화산로,스트레스 해소; 감정 자극,37.6024669,127.0870249
준골프존,실내골프/스크린골프,서울특별시 구로구 개봉동 ,에너지 회복; 스트레스 해소,37.4946145,126.8562108
A7휘트니스클럽,헬스/휘트니스,서울특별시 서대문구 홍제동 통일로,스트레스 해소; 감정 자극,37.583899,126.9492862
김동칠복싱체육관,기타레포츠,서울특별시 서초구 양재동 마방로2길,스트레스 해소; 감정 자극,37.4715272,127.0393155
박성천탁구교실,탁구장,서울특별시 은평구 증산동 증산서길,에너지 회복; 스트레스 해소,37.5868262,126.9094379
JB골프,실내골프/스크린골프,서울특별시 관악구 봉천동 관악로,에너지 회복; 스트레스 해소,37.4812588,126.9527443
아라비안,기타레포츠,서울특별시 송파구 송파동 가락로,스트레스 해소; 감정 자극,37.504081,127.1141497
비치웰니스,헬스/휘트니스,서울특별시 종로구 혜화동 대학로,스트레스 해소; 감정 자극,37.5852525,127.0014283
방배야구교실,야구연습장,서울특별시 서초구 방배동 방배로,에너지 회복; 스트레스 해소,37.4783113,126.9997061
은성골프존,실내골프/스크린골프,서울특별시 성동구 성수동2가 뚝섬로,에너지 회복; 스트레스 해소,37.5380483,127.0579596
드리시티요가,기타레포츠,서울특별시 마포구 서교동 동교로,스트레스 해소; 감정 자극,37.5555043,126.9202252
서울광장스케이트장,스케이트장,서울특별시 중구 태평로2가 을지로,에너지 회복; 스트레스 해소,37.5649815,126.9783963
TPC한남골프존,실내골프/스크린골프,서울특별시 용산구 한남동 독서당로,에너지 회복; 스트레스 해소,37.5331534,127.0072808
스페이스본스크린골프,실내골프/스크린골프,서울특별시 종로구 사직동 사직로8길,에너지 회복; 스트레스 해소,37.574107,126.9724134
MEC운동센터,헬스/휘트니스,서울특별시 강남구 신사동 압구정로8길,스트레스 해소; 감정 자극,37.5226704,127.0217531
골프존클럽하우스,실내골프/스크린골프,서울특별시 강남구 청담동 영동대로,에너지 회복; 스트레스 해소,37.5225801,127.0558739
바디라이트,헬스/휘트니스,서울특별시 강동구 천호동 올림픽로,스트레스 해소; 감정 자극,37.549006,127.1271375
NBH웰니스센타,헬스/휘트니스,서울특별시 강남구 대치동 역삼로,스트레스 해소; 감정 자극,37.5037829,127.0595421
도르라핏,헬스/휘트니스,서울특별시 강남구 수서동 밤고개로1길,스트레스 해소; 감정 자극,37.4887622,127.1030367
바디메이크업,헬스/휘트니스,서울특별시 강남구 신사동 논현로157길,스트레스 해소; 감정 자극,37.5216455,127.0249943
CSGYM,헬스/휘트니스,서울특별시 강남구 논현동 도산대로,스트레스 해소; 감정 자극,37.517912,127.0241023
파워짐,헬스/휘트니스,서울특별시 강남구 논현동 강남대로,스트레스 해소; 감정 자극,37.5054552,127.0239599
동대문스크린골프,실내골프/스크린골프,서울특별시 중구 을지로6가 을지로,에너지 회복; 스트레스 해소,37.565398,127.0099464
리발란스KPT스튜디오,헬스/휘트니스,서울특별시 구로구 개봉동 남부순환로95길,스트레스 해소; 감정 자극,37.4940953,126.8581276
액티브짐휘트니스센터,헬스/휘트니스,서울특별시 강남구 청담동 도산대로85길,스트레스 해소; 감정 자극,37.5263495,127.0494195
신도림생활체육관,지역체육센터,서울특별시 구로구 신도림동 경인로67길,에너지 회복; 스트레스 해소,37.5144268,126.8824801
신구스포츠센터,지역체육센터,서울특별시 강남구 신사동 압구정로18길,에너지 회복; 스트레스 해소,37.5237775,127.0248791
KBOXING,지역실내체육관,서울특별시 중랑구 신내동 신내로,에너지 회복; 스트레스 해소,37.6170231,127.0920103
EM휘트니스,헬스/휘트니스,서울특별시 중구 을지로3가 을지로14길,스트레스 해소; 감정 자극,37.5653364,126.9921312
에스퍼스널트레이닝,헬스/휘트니스,서울특별시 용산구 용산동5가 서빙고로,스트레스 해소; 감정 자극,37.5230466,126.9722098
파크짐,헬스/휘트니스,서울특별시 중구 신당동 다산로,스트레스 해소; 감정 자극,37.5627173,127.01522
MK볼링센터,볼링장,서울특별시 구로구 구로동 구로중앙로,스트레스 해소; 감정 자극,37.5010998,126.8818877
마음골프학교,실내골프/스크린골프,서울특별시 강남구 논현동 봉은사로,에너지 회복; 스트레스 해소,37.5055954,127.0280206
바디프렌즈,헬스/휘트니스,서울특별시 영등포구 양평동1가 영등포로,스트레스 해소; 감정 자극,37.523407,126.8828362
필승탁구장,탁구장,서울특별시 마포구 합정동 독막로,에너지 회복; 스트레스 해소,37.5484508,126.9158484
오동근린공원실내배드민턴장,지역실내체육관,서울특별시 강북구 번동 덕릉로42길,에너지 회복; 스트레스 해소,37.6337511,127.0319159
스타트원헬스,헬스/휘트니스,서울특별시 마포구 연남동 연남로,스트레스 해소; 감정 자극,37.5615616,126.922487
인필라테스,헬스/휘트니스,서울특별시 마포구 서교동 양화로,스트레스 해소; 감정 자극,37.551277,126.9176234
