NAME,TYPE,LOCATION,TAG,LAT,LON,CATEGORY
우성헬스,헬스/휘트니스,서울특별시 동대문구 신설동 왕산로,스트레스 해소; 감정 자극,37.5758417,127.0236765,피트니스/운동시설
중앙24시헬스,헬스/휘트니스,서울특별시 서대문구 북아현동 북아현로,스트레스 해소; 감정 자극,37.563293,126.9547724,피트니스/운동시설
헬스토피아,헬스/휘트니스,서울특별시 구로구 오류동 오류로8길,스트레스 해소; 감정 자극,37.4921777,126.8433946,피트니스/운동시설
휘트니스센터,헬스/휘트니스,서울특별시 중구 충무로1가 명동8나길,스트레스 해소; 감정 자극,37.5612962,126.9832412,피트니스/운동시설
동방헬스,헬스/휘트니스,서울특별시 성북구 장위동 장위로,스트레스 해소; 감정 자극,37.6137685,127.0517249,피트니스/운동시설
에너지플러스,헬스/휘트니스,서울특별시 강남구 청담동 선릉로,스트레스 해소; 감정 자극,37.5231877,127.0391653,피트니스/운동시설
진여성전용휘트니스,헬스/휘트니스,서울특별시 마포구 합정동 월드컵로,스트레스 해소; 감정 자극,37.5494977,126.9132614,피트니스/운동시설
신사헬스클럽,헬스/휘트니스,서울특별시 강남구 신사동 강남대로152길,스트레스 해소; 감정 자극,37.5187492,127.0241275,피트니스/운동시설
그린헬스,헬스/휘트니스,서울특별시 중랑구 중화동 중랑역로,스트레스 해소; 감정 자극,37.5943804,127.0771237,피트니스/운동시설
우진헬스클럽,헬스/휘트니스,서울특별시 종로구 종로6가 종로41길,스트레스 해소; 감정 자극,37.572777,127.0066709,피트니스/운동시설
한남헬스,헬스/휘트니스,서울특별시 용산구 한남동 대사관로31길,스트레스 해소; 감정 자극,37.5342019,127.0048434,피트니스/운동시설
동산헬스,헬스/휘트니스,서울특별시 동대문구 전농동 전농로,스트레스 해소; 감정 자극,37.5767643,127.0576969,피트니스/운동시설
헬스클럽,헬스/휘트니스,서울특별시 강남구 논현동 강남대로122길,스트레스 해소; 감정 자극,37.5090303,127.025855,피트니스/운동시설
무지개헬스클럽,헬스/휘트니스,서울특별시 마포구 성산동 월드컵북로,스트레스 해소; 감정 자극,37.5690037,126.9045248,피트니스/운동시설
용마헬스클럽,헬스/휘트니스,서울특별시 중랑구 면목동 면목로,스트레스 해소; 감정 자극,37.5816841,127.0886238,피트니스/운동시설
펌프헬스클럽,헬스/휘트니스,서울특별시 양천구 목동 목동중앙로,스트레스 해소; 감정 자극,37.5357127,126.8704635,피트니스/운동시설
챠밍헬스클럽,헬스/휘트니스,서울특별시 성북구 동선동1가 동소문로,스트레스 해소; 감정 자극,37.5935458,127.017058,피트니스/운동시설
종로헬스,헬스/휘트니스,서울특별시 종로구 관철동 삼일대로17길,스트레스 해소; 감정 자극,37.5691738,126.9860324,피트니스/운동시설
고려헬스,헬스/휘트니스,서울특별시 동대문구 제기동 안암로24길,스트레스 해소; 감정 자극,37.588269,127.0359904,피트니스/운동시설
유진헬스크럽,헬스/휘트니스,서울특별시 동작구 대방동 등용로,스트레스 해소; 감정 자극,37.505551,126.9342135,피트니스/운동시설
그랜드헬스클럽,헬스/휘트니스,서울특별시 용산구 보광동 장문로,스트레스 해소; 감정 자극,37.5267047,127.002788,피트니스/운동시설
스타헬스,헬스/휘트니스,서울특별시 동대문구 전농동 전농로,스트레스 해소; 감정 자극,37.5767643,127.0576969,피트니스/운동시설
한양남여헬스,헬스/휘트니스,서울특별시 동대문구 청량리동 홍릉로,스트레스 해소; 감정 자극,37.5834824,127.0441365,피트니스/운동시설
대도헬스클럽,헬스/휘트니스,서울특별시 중랑구 면목동 사가정로,스트레스 해소; 감정 자극,37.5810816,127.0843842,피트니스/운동시설
유성헬스크럽,헬스/휘트니스,서울특별시 강남구 논현동 봉은사로1길,스트레스 해소; 감정 자극,37.5055742,127.0249179,피트니스/운동시설
코리아헬스,헬스/휘트니스,서울특별시 광진구 군자동 천호대로102길,스트레스 해소; 감정 자극,37.5575292,127.0735504,피트니스/운동시설
바위헬스,헬스/휘트니스,서울특별시 양천구 신월동 월정로,스트레스 해소; 감정 자극,37.532924,126.8363283,피트니스/운동시설
한미헬스피아,헬스/휘트니스,서울특별시 용산구 한남동 대사관로34길,스트레스 해소; 감정 자극,37.5316672,127.0057043,피트니스/운동시설
파워헬스클럽,헬스/휘트니스,서울특별시 서초구 서초동 서초중앙로6길,스트레스 해소; 감정 자극,37.4861424,127.0173723,피트니스/운동시설
킹헬스토피아,헬스/휘트니스,서울특별시 송파구 방이동 백제고분로48길,스트레스 해소; 감정 자극,37.511167,127.114537,피트니스/운동시설
캘리포니아,헬스/휘트니스,서울특별시 강남구 청담동 선릉로,스트레스 해소; 감정 자극,37.5231877,127.0391653,피트니스/운동시설
충암스포츠센터,스포츠센터,서울특별시 서대문구 남가좌동 명지대길,에너지 회복; 스트레스 해소,37.5830286,126.9233761,피트니스/운동시설
대성스포츠센터,스포츠센터,서울특별시 광진구 중곡동 용마산로,에너지 회복; 스트레스 해소,37.5633231,127.0869713,피트니스/운동시설
우창볼링센터,볼링장,서울특별시 동대문구 휘경동 망우로,스트레스 해소; 감정 자극,37.5899957,127.0624325,실내 스포츠/레저
길동볼링센터,볼링장,서울특별시 강동구 길동 양재대로,스트레스 해소; 감정 자극,37.5375025,127.1398729,실내 스포츠/레저
한산체육관,지역실내체육관,서울특별시 강동구 둔촌동 명일로,에너지 회복; 스트레스 해소,37.5324351,127.1441069,피트니스/운동시설
전농체육관,지역실내체육관,서울특별시 동대문구 전농동 전농로23길,에너지 회복; 스트레스 해소,37.5788448,127.0534646,피트니스/운동시설
현대체육관,지역실내체육관,서울특별시 은평구 구산동 서오릉로,에너지 회복; 스트레스 해소,37.6129309,126.9137875,피트니스/운동시설
전우체육관,지역실내체육관,서울특별시 노원구 상계동 한글비석로24길,에너지 회복; 스트레스 해소,37.6629079,127.0725669,피트니스/운동시설
마을종합체육관,지역실내체육관,서울특별시 강동구 성내동 올림픽로,에너지 회복; 스트레스 해소,37.5313695,127.1208518,피트니스/운동시설
그랜드볼링센터,볼링장,서울특별시 금천구 가산동 가산로9길,스트레스 해소; 감정 자극,37.4766687,126.8906247,실내 스포츠/레저
서울특별시교육청학생체육관,대형실내체육관,서울특별시 송파구 잠실동 올림픽로,에너지 회복; 스트레스 해소,37.5115211,127.0757714,실내 스포츠/레저
동문체육관,지역실내체육관,서울특별시 동대문구 장안동 장한로26다길,에너지 회복; 스트레스 해소,37.5671666,127.071135,피트니스/운동시설
세종볼링센터,볼링장,서울특별시 종로구 내수동 새문안로3길,스트레스 해소; 감정 자극,37.5729873,126.9726494,실내 스포츠/레저
종합체육관,지역실내체육관,서울특별시 성동구 금호동4가 독서당로46가길,에너지 회복; 스트레스 해소,37.5476621,127.0211345,피트니스/운동시설
진리체육관,지역실내체육관,서울특별시 서대문구 남가좌동 명지대길,에너지 회복; 스트레스 해소,37.5830286,126.9233761,피트니스/운동시설
우성스포닉센터,스포츠센터,서울특별시 동작구 신대방동 여의대방로,에너지 회복; 스트레스 해소,37.4967762,126.9159857,피트니스/운동시설
태릉선수촌개선관,지역실내체육관,서울특별시 노원구 공릉동 화랑로,에너지 회복; 스트레스 해소,37.6317176,127.1005228,피트니스/운동시설
태성체육관,지역실내체육관,서울특별시 성북구 석관동 돌곶이로14길,에너지 회복; 스트레스 해소,37.6092182,127.0621339,피트니스/운동시설
곰두리체육센터,스포츠센터,서울특별시 송파구 오금동 동남로,에너지 회복; 스트레스 해소,37.5056449,127.1391853,피트니스/운동시설
위너스볼링장,볼링장,서울특별시 금천구 독산동 시흥대로,스트레스 해소; 감정 자극,37.4669034,126.8978902,실내 스포츠/레저
대청레포츠센터,스포츠센터,서울특별시 강남구 개포동 개포로,에너지 회복; 스트레스 해소,37.489715,127.0695778,피트니스/운동시설
용성스포츠센터,스포츠센터,서울특별시 동대문구 전농동 사가정로,에너지 회복; 스트레스 해소,37.5747671,127.0536195,피트니스/운동시설
개운스포츠센터,스포츠센터,서울특별시 성북구 종암동 북악산로,에너지 회복; 스트레스 해소,37.5995928,127.0266999,피트니스/운동시설
신사스포츠센터,스포츠센터,서울특별시 서초구 잠원동 나루터로,에너지 회복; 스트레스 해소,37.5161333,127.0120671,피트니스/운동시설
동천빙상경기장,지역실내체육관,서울특별시 노원구 하계동 노원로18길,에너지 회복; 스트레스 해소,37.6438142,127.0734347,피트니스/운동시설
크리스탈수영장,일반수영장,서울특별시 강남구 신사동 압구정로,에너지 회복; 안정감,37.5236257,127.0215285,수영/수상스포츠
잠실카트체험장,일반경기장,서울특별시 송파구 잠실동 ,에너지 회복; 스트레스 해소,37.5122807,127.0855986,경기장/관람시설
골드수영장,일반수영장,서울특별시 광진구 광장동 아차산로78길,에너지 회복; 안정감,37.5509773,127.1108714,수영/수상스포츠
싸이헬스,헬스/휘트니스,서울특별시 은평구 역촌동 서오릉로7길,스트레스 해소; 감정 자극,37.60662,126.9213722,피트니스/운동시설
로얄당구장,당구장,서울특별시 송파구 삼전동 삼학사로19길,스트레스 해소; 감정 자극,37.5062041,127.0942154,실내 스포츠/레저
힐스포파크,헬스/휘트니스,서울특별시 동대문구 답십리동 답십리로,스트레스 해소; 감정 자극,37.5747327,127.0499421,피트니스/운동시설
성은헬스클럽,헬스/휘트니스,서울특별시 서대문구 북가좌동 증가로,스트레스 해소; 감정 자극,37.5813203,126.9151431,피트니스/운동시설
서울레포츠센터,스포츠센터,서울특별시 강동구 고덕동 고덕로,에너지 회복; 스트레스 해소,37.556037,127.1455687,피트니스/운동시설
한경스포렉스,헬스/휘트니스,서울특별시 서초구 반포동 신반포로,스트레스 해소; 감정 자극,37.5044399,126.9996177,피트니스/운동시설
르메이에르헬스,헬스/휘트니스,서울특별시 관악구 남현동 과천대로,스트레스 해소; 감정 자극,37.4644544,126.9881404,피트니스/운동시설
화인헬스,헬스/휘트니스,서울특별시 광진구 구의동 자양로,스트레스 해소; 감정 자극,37.5482638,127.0888426,피트니스/운동시설
동우헬스,헬스/휘트니스,서울특별시 성동구 용답동 천호대로,스트레스 해소; 감정 자극,37.5718615,127.0440633,피트니스/운동시설
영헬스센터,헬스/휘트니스,서울특별시 서대문구 북가좌동 응암로,스트레스 해소; 감정 자극,37.5852314,126.915723,피트니스/운동시설
대성휘트니스,헬스/휘트니스,서울특별시 광진구 중곡동 용마산로,스트레스 해소; 감정 자극,37.5633231,127.0869713,피트니스/운동시설
목동스포츠센터,스포츠센터,서울특별시 양천구 목동 목동서로,에너지 회복; 스트레스 해소,37.5316107,126.8751281,피트니스/운동시설
현대스포츠클럽,스포츠센터,서울특별시 서초구 방배동 방배로,에너지 회복; 스트레스 해소,37.4783113,126.9997061,피트니스/운동시설
VIP휘트니스,헬스/휘트니스,서울특별시 마포구 동교동 월드컵북로,스트레스 해소; 감정 자극,37.5567685,126.9196652,피트니스/운동시설
뉴서울헬스클럽,헬스/휘트니스,서울특별시 동대문구 장안동 장한로5길,스트레스 해소; 감정 자극,37.5650024,127.064404,피트니스/운동시설
장안헬스,헬스/휘트니스,서울특별시 성동구 금호동2가 무수막길,스트레스 해소; 감정 자극,37.5508993,127.0231793,피트니스/운동시설
종로헬스클럽,헬스/휘트니스,서울특별시 종로구 숭인동 종로,스트레스 해소; 감정 자극,37.5736453,127.0165769,피트니스/운동시설
건우헬스클럽,헬스/휘트니스,서울특별시 서대문구 남가좌동 증가로,스트레스 해소; 감정 자극,37.5766818,126.9155933,피트니스/운동시설
스톤희트니스,헬스/휘트니스,서울특별시 송파구 잠실동 백제고분로,스트레스 해소; 감정 자극,37.5142763,127.077649,피트니스/운동시설
럭키볼링센터,볼링장,서울특별시 강북구 번동 한천로,스트레스 해소; 감정 자극,37.6315714,127.0400311,실내 스포츠/레저
동서울헬스,헬스/휘트니스,서울특별시 강동구 암사동 올림픽로,스트레스 해소; 감정 자극,37.5585235,127.1306295,피트니스/운동시설
성신볼링장,볼링장,서울특별시 성북구 동선동1가 보문로34길,스트레스 해소; 감정 자극,37.5909355,127.0191774,실내 스포츠/레저
로즈헬스클럽,헬스/휘트니스,서울특별시 송파구 오금동 마천로,스트레스 해소; 감정 자극,37.5073421,127.1289918,피트니스/운동시설
태화볼링센터,볼링장,서울특별시 마포구 서교동 와우산로,스트레스 해소; 감정 자극,37.5564843,126.9309958,실내 스포츠/레저
비원볼링센터,볼링장,서울특별시 종로구 원서동 창덕궁1길,스트레스 해소; 감정 자극,37.5792731,126.9888968,실내 스포츠/레저
석촌볼링장,볼링장,서울특별시 송파구 석촌동 백제고분로,스트레스 해소; 감정 자극,37.5025616,127.0991797,실내 스포츠/레저
우성볼링센터,볼링장,서울특별시 광진구 자양동 뚝섬로,스트레스 해소; 감정 자극,37.5352838,127.0684803,실내 스포츠/레저
한화여의수영장,일반수영장,서울특별시 영등포구 여의도동 국제금융로,에너지 회복; 안정감,37.5255491,126.9274753,수영/수상스포츠
유성수영장,일반수영장,서울특별시 강남구 신사동 압구정로,에너지 회복; 안정감,37.5236257,127.0215285,수영/수상스포츠
온천실내수영장,일반수영장,서울특별시 동대문구 신설동 한빛로,에너지 회복; 안정감,37.5780258,127.027523,수영/수상스포츠
한국헬스체육관,헬스/휘트니스,서울특별시 동대문구 용두동 무학로,스트레스 해소; 감정 자극,37.5779746,127.0304297,피트니스/운동시설
쌍용스쿼시클럽,스포츠센터,서울특별시 강남구 논현동 논현로,에너지 회복; 스트레스 해소,37.5181326,127.0287585,피트니스/운동시설
시그마헬스클럽,헬스/휘트니스,서울특별시 동작구 신대방동 보라매로5길,스트레스 해소; 감정 자극,37.4909608,126.9228422,피트니스/운동시설
월슨스포츠클럽,헬스/휘트니스,서울특별시 구로구 구로동 구로중앙로,스트레스 해소; 감정 자극,37.5010998,126.8818877,피트니스/운동시설
궁전헬스,헬스/휘트니스,서울특별시 구로구 신도림동 ,스트레스 해소; 감정 자극,37.50941,126.88285,피트니스/운동시설
아센휘트니스,헬스/휘트니스,서울특별시 동작구 흑석동 서달로,스트레스 해소; 감정 자극,37.4989014,126.9597432,피트니스/운동시설
위너스헬스클럽,헬스/휘트니스,서울특별시 동대문구 이문동 한천로,스트레스 해소; 감정 자극,37.5953727,127.0681563,피트니스/운동시설
리버시티,수상스포츠,서울특별시 강남구 압구정동 압구정로11길,감정 자극; 스트레스 해소,37.5253133,127.0214362,수영/수상스포츠
삼성스포렉스,스포츠센터,서울특별시 동작구 상도동 양녕로30길,에너지 회복; 스트레스 해소,37.4992992,126.9449526,피트니스/운동시설
잠실종합운동장잠실야구장,프로야구경기장,서울특별시 송파구 잠실동 올림픽로,에너지 회복; 스트레스 해소,37.5115211,127.0757714,경기장/관람시설
강북구민운동장웰빙스포츠센터,스포츠센터,서울특별시 강북구 번동 오현로31길,에너지 회복; 스트레스 해소,37.6306904,127.0380088,피트니스/운동시설
경기스포츠센터,스포츠센터,서울특별시 서대문구 충정로2가 경기대로,에너지 회복; 스트레스 해소,37.5624361,126.9618463,피트니스/운동시설
르와휘트니스,헬스/휘트니스,서울특별시 강남구 도곡동 언주로,스트레스 해소; 감정 자극,37.4895722,127.0490511,피트니스/운동시설
준헬스클럽,헬스/휘트니스,서울특별시 강남구 개포동 선릉로,스트레스 해소; 감정 자극,37.4792126,127.0647854,피트니스/운동시설
헬스코리아클럽,헬스/휘트니스,서울특별시 중랑구 면목동 면목로,스트레스 해소; 감정 자극,37.5816841,127.0886238,피트니스/운동시설
서울디지털운동장,일반경기장,서울특별시 금천구 가산동 가산디지털2로,에너지 회복; 스트레스 해소,37.4820799,126.8781353,경기장/관람시설
잠실종합운동장잠실실내수영장,일반수영장,서울특별시 송파구 잠실동 올림픽로,에너지 회복; 안정감,37.5115211,127.0757714,수영/수상스포츠
태릉국제사격장,사격장,서울특별시 노원구 공릉동 화랑로,감정 자극; 스트레스 해소,37.6317176,127.1005228,실내 스포츠/레저
송파수영장,일반수영장,서울특별시 송파구 잠실동 올림픽로,에너지 회복; 안정감,37.5115211,127.0757714,수영/수상스포츠
YMCA서초수영장,일반수영장,서울특별시 서초구 반포동 사평대로,에너지 회복; 안정감,37.5014683,127.0018479,수영/수상스포츠
관악구립운동장,일반경기장,서울특별시 관악구 신림동 ,에너지 회복; 스트레스 해소,37.4868283,126.9282666,경기장/관람시설
반포공설운동장,공설/시민운동장,서울특별시 서초구 반포동 신반포로16길,에너지 회복; 스트레스 해소,37.4998032,126.9967101,경기장/관람시설
잠실종합운동장,종합운동장컴플렉스,서울특별시 송파구 잠실동 올림픽로,에너지 회복; 스트레스 해소,37.5115211,127.0757714,경기장/관람시설
서울월드컵경기장,월드컵경기장,서울특별시 마포구 성산동 월드컵로,에너지 회복; 스트레스 해소,37.5664374,126.8963377,경기장/관람시설
성동구민종합체육센터,지역체육센터,서울특별시 성동구 성수동1가 왕십리로,에너지 회복; 스트레스 해소,37.5397618,127.04374,피트니스/운동시설
동대문구체육관,지역실내체육관,서울특별시 동대문구 답십리동 답십리로,에너지 회복; 스트레스 해소,37.5747327,127.0499421,피트니스/운동시설
광진구민체육센터,지역체육센터,서울특별시 광진구 광장동 구천면로,에너지 회복; 스트레스 해소,37.5466968,127.1062895,피트니스/운동시설
성북종합레포츠타운,지역체육센터,서울특별시 성북구 석관동 한천로58길,에너지 회복; 스트레스 해소,37.6100056,127.0703623,피트니스/운동시설
금천구민문화체육센터,지역체육센터,서울특별시 금천구 독산동 독산로54길,에너지 회복; 스트레스 해소,37.4711591,126.9066107,피트니스/운동시설
동작구민체육센터,지역체육센터,서울특별시 동작구 신대방동 여의대방로16길,에너지 회복; 스트레스 해소,37.4942544,126.9164475,피트니스/운동시설
마포아트센터,지역체육센터,서울특별시 마포구 대흥동 대흥로20길,에너지 회복; 스트레스 해소,37.5503543,126.9451475,피트니스/운동시설
서초체육센터,지역체육센터,서울특별시 서초구 반포동 사평대로,에너지 회복; 스트레스 해소,37.5014683,127.0018479,피트니스/운동시설
은평구민체육센터,지역체육센터,서울특별시 은평구 진관동 진관1로,에너지 회복; 스트레스 해소,37.632951,126.9201794,피트니스/운동시설
고덕체육센터,지역체육센터,서울특별시 강동구 상일동 구천면로93길,에너지 회복; 스트레스 해소,37.5519674,127.1682471,피트니스/운동시설
흑석체육센터,지역체육센터,서울특별시 동작구 흑석동 현충로,에너지 회복; 스트레스 해소,37.5109655,126.9617918,피트니스/운동시설
송파구체육센터,지역체육센터,서울특별시 송파구 거여동 양산로,에너지 회복; 스트레스 해소,37.4912571,127.1436281,피트니스/운동시설
마장체육센터,지역체육센터,서울특별시 성동구 마장동 마조로11길,에너지 회복; 스트레스 해소,37.5617989,127.0402981,피트니스/운동시설
장평근린공원동대문구민체육센터,지역체육센터,서울특별시 동대문구 장안동 장안벚꽃로,에너지 회복; 스트레스 해소,37.5644149,127.0729096,피트니스/운동시설
월드스포츠타운,지역체육센터,서울특별시 강북구 수유동 삼양로,에너지 회복; 스트레스 해소,37.6353867,127.0170277,피트니스/운동시설
해공체육문화센터,지역체육센터,서울특별시 강동구 천호동 천중로18길,에너지 회복; 스트레스 해소,37.5438076,127.1299377,피트니스/운동시설
강동건강생활관,지역체육센터,서울특별시 강동구 성내동 성내로14길,에너지 회복; 스트레스 해소,37.5259147,127.1260102,피트니스/운동시설
잠실종합운동장SK나이츠홈구장,대형실내체육관,서울특별시 송파구 잠실동 올림픽로,에너지 회복; 스트레스 해소,37.5115211,127.0757714,실내 스포츠/레저
장충체육관,대형실내체육관,서울특별시 중구 장충동2가 동호로,에너지 회복; 스트레스 해소,37.5580005,127.0081609,실내 스포츠/레저
잠실종합운동장잠실실내체육관,대형실내체육관,서울특별시 송파구 잠실동 올림픽로,에너지 회복; 스트레스 해소,37.5115211,127.0757714,실내 스포츠/레저
고려대학교아이스링크,스케이트장,서울특별시 성북구 안암동5가 안암로,에너지 회복; 스트레스 해소,37.5841523,127.030459,겨울스포츠
롯데월드아이스가든,스케이트장,서울특별시 송파구 잠실동 올림픽로,에너지 회복; 스트레스 해소,37.5115211,127.0757714,겨울스포츠
그랜드하얏트호텔서울아이스링크,스케이트장,서울특별시 용산구 한남동 소월로,에너지 회복; 스트레스 해소,37.5455117,127.0025952,겨울스포츠
태릉선수촌태릉국제스케이트장,스케이트장,서울특별시 노원구 공릉동 화랑로,에너지 회복; 스트레스 해소,37.6317176,127.1005228,겨울스포츠
그랜드워커힐서울워커힐아이스링크,스케이트장,서울특별시 광진구 광장동 워커힐로,에너지 회복; 스트레스 해소,37.5442671,127.0973323,겨울스포츠
야구연습장,야구연습장,서울특별시 관악구 신림동 남부순환로,에너지 회복; 스트레스 해소,37.4840758,126.9279131,피트니스/운동시설
IONE스포츠클럽,지역실내체육관,서울특별시 서대문구 남가좌동 명지대길,에너지 회복; 스트레스 해소,37.5830286,126.9233761,피트니스/운동시설
르메이에르스포츠,지역실내체육관,서울특별시 종로구 청진동 종로,에너지 회복; 스트레스 해소,37.5701419,126.9773924,피트니스/운동시설
광나루한강공원광나루수영장,일반수영장,서울특별시 강동구 천호동 ,에너지 회복; 안정감,37.54294,127.12733,수영/수상스포츠
스마일스포츠센터,스포츠센터,서울특별시 중구 소공동 남대문로7길,에너지 회복; 스트레스 해소,37.5637679,126.9816538,피트니스/운동시설
웰빙스포렉스,스포츠센터,서울특별시 성북구 상월곡동 장월로3길,에너지 회복; 스트레스 해소,37.6092157,127.0442348,피트니스/운동시설
투자기관체육센터,지역체육센터,서울특별시 성동구 용답동 천호대로78길,에너지 회복; 스트레스 해소,37.5621411,127.0570895,피트니스/운동시설
뚝섬한강공원뚝섬눈썰매장,눈썰매장,서울특별시 광진구 자양동 ,감정 자극; 스트레스 해소,37.5316904,127.0749477,겨울스포츠
제일스포츠클럽,헬스/휘트니스,서울특별시 송파구 가락동 송파대로,스트레스 해소; 감정 자극,37.4908618,127.1200542,피트니스/운동시설
드림스포렉스,지역체육센터,서울특별시 강남구 역삼동 역삼로,에너지 회복; 스트레스 해소,37.4995545,127.0478452,피트니스/운동시설
성북구민체육관,지역체육센터,서울특별시 성북구 하월곡동 화랑로13길,에너지 회복; 스트레스 해소,37.6049233,127.0418097,피트니스/운동시설
스위트짐,헬스/휘트니스,서울특별시 성북구 길음동 삼양로,스트레스 해소; 감정 자극,37.609796,127.0220153,피트니스/운동시설
W골프헬스,헬스/휘트니스,서울특별시 강남구 신사동 압구정로30길,스트레스 해소; 감정 자극,37.5248281,127.0291103,피트니스/운동시설
동아골프스쿨,실내골프/스크린골프,서울특별시 강남구 수서동 광평로47길,에너지 회복; 스트레스 해소,37.4876789,127.0993489,실내 스포츠/레저
버디골프스쿨,실내골프/스크린골프,서울특별시 강남구 신사동 압구정로,에너지 회복; 스트레스 해소,37.5236257,127.0215285,실내 스포츠/레저
메디스골프클럽,실내골프/스크린골프,서울특별시 강남구 논현동 봉은사로,에너지 회복; 스트레스 해소,37.5055954,127.0280206,실내 스포츠/레저
삼성골프스쿨,실내골프/스크린골프,서울특별시 강남구 대치동 도곡로,에너지 회복; 스트레스 해소,37.5001811,127.0648705,실내 스포츠/레저
동성골프클리닉,실내골프/스크린골프,서울특별시 강남구 삼성동 테헤란로87길,에너지 회복; 스트레스 해소,37.5086166,127.0589795,실내 스포츠/레저
세종골프스쿨,실내골프/스크린골프,서울특별시 광진구 구의동 광나루로,에너지 회복; 스트레스 해소,37.5449828,127.0880163,실내 스포츠/레저
싱글골프스쿨,실내골프/스크린골프,서울특별시 서초구 양재동 강남대로,에너지 회복; 스트레스 해소,37.4716569,127.0385394,실내 스포츠/레저
골드골프연습장,실내골프/스크린골프,서울특별시 광진구 광장동 아차산로78길,에너지 회복; 스트레스 해소,37.5509773,127.1108714,실내 스포츠/레저
골프로아카데미,실내골프/스크린골프,서울특별시 강남구 삼성동 봉은사로,에너지 회복; 스트레스 해소,37.5136222,127.0567549,실내 스포츠/레저
홍익골프스쿨,실내골프/스크린골프,서울특별시 강남구 청담동 학동로,에너지 회복; 스트레스 해소,37.5181087,127.0457549,실내 스포츠/레저
현대밸리골프클럽,실내골프/스크린골프,서울특별시 광진구 자양동 뚝섬로,에너지 회복; 스트레스 해소,37.5352838,127.0684803,실내 스포츠/레저
블루스카이,실내골프/스크린골프,서울특별시 성북구 정릉동 정릉로,에너지 회복; 스트레스 해소,37.611849,126.9922832,실내 스포츠/레저
코레스코골프클럽,실내골프/스크린골프,서울특별시 송파구 오금동 위례성대로,에너지 회복; 스트레스 해소,37.5102891,127.1314015,실내 스포츠/레저
마스터스골프클럽,실내골프/스크린골프,서울특별시 광진구 자양동 능동로,에너지 회복; 스트레스 해소,37.5375517,127.0696332,실내 스포츠/레저
서초골프아카데미,실내골프/스크린골프,서울특별시 서초구 서초동 효령로,에너지 회복; 스트레스 해소,37.4864209,127.0214463,실내 스포츠/레저
KPGAGDR골프장,실내골프/스크린골프,서울특별시 강동구 명일동 동남로73길,에너지 회복; 스트레스 해소,37.5528897,127.1548048,실내 스포츠/레저
베스트골프크럽,실내골프/스크린골프,서울특별시 강남구 도곡동 도곡로,에너지 회복; 스트레스 해소,37.4932782,127.0437644,실내 스포츠/레저
Q골프연습장,실내골프/스크린골프,서울특별시 강동구 명일동 구천면로,에너지 회복; 스트레스 해소,37.549148,127.1509946,실내 스포츠/레저
신라골프클리닉,실내골프/스크린골프,서울특별시 양천구 신정동 신월로,에너지 회복; 스트레스 해소,37.5213479,126.8521006,실내 스포츠/레저
드림골프클럽,실내골프/스크린골프,서울특별시 강남구 역삼동 역삼로,에너지 회복; 스트레스 해소,37.4995545,127.0478452,실내 스포츠/레저
KPGA골프,실내골프/스크린골프,서울특별시 강남구 대치동 영동대로50길,에너지 회복; 스트레스 해소,37.4989377,127.0706377,실내 스포츠/레저
라이프골프연습장,실내골프/스크린골프,서울특별시 강서구 화곡동 강서로,에너지 회복; 스트레스 해소,37.5388966,126.8423494,실내 스포츠/레저
미도골프연습장,실내골프/스크린골프,서울특별시 강남구 대치동 삼성로,에너지 회복; 스트레스 해소,37.5028596,127.0591472,실내 스포츠/레저
무학골프존,실내골프/스크린골프,서울특별시 성동구 행당동 고산자로10길,에너지 회복; 스트레스 해소,37.558416,127.0360465,실내 스포츠/레저
SD골프클리닉,실내골프/스크린골프,서울특별시 서초구 우면동 바우뫼로7길,에너지 회복; 스트레스 해소,37.4713458,127.0245034,실내 스포츠/레저
아에라골프연습장,실내골프/스크린골프,서울특별시 성북구 석관동 화랑로,에너지 회복; 스트레스 해소,37.6115128,127.0595792,실내 스포츠/레저
강동골프연습장,실내골프/스크린골프,서울특별시 강동구 둔촌동 진황도로,에너지 회복; 스트레스 해소,37.5276895,127.1448084,실내 스포츠/레저
안국골프아카데미,실내골프/스크린골프,서울특별시 종로구 경운동 삼일대로,에너지 회복; 스트레스 해소,37.5711546,126.987675,실내 스포츠/레저
현대골프아카데미,실내골프/스크린골프,서울특별시 강남구 압구정동 압구정로,에너지 회복; 스트레스 해소,37.52735,127.0288606,실내 스포츠/레저
마이골프클럽,실내골프/스크린골프,서울특별시 서초구 반포동 신반포로,에너지 회복; 스트레스 해소,37.5044399,126.9996177,실내 스포츠/레저
쌍용골프스쿨,실내골프/스크린골프,서울특별시 강남구 대치동 영동대로,에너지 회복; 스트레스 해소,37.5018574,127.0671243,실내 스포츠/레저
KMP골프아카데미,실내골프/스크린골프,서울특별시 서초구 서초동 효령로,에너지 회복; 스트레스 해소,37.4864209,127.0214463,실내 스포츠/레저
COS골프아카데미,실내골프/스크린골프,서울특별시 양천구 신정동 신월로,에너지 회복; 스트레스 해소,37.5213479,126.8521006,실내 스포츠/레저
신영골프스쿨,실내골프/스크린골프,서울특별시 강남구 청담동 영동대로,에너지 회복; 스트레스 해소,37.5225801,127.0558739,실내 스포츠/레저
거명골프클럽,실내골프/스크린골프,서울특별시 강남구 대치동 남부순환로,에너지 회복; 스트레스 해소,37.4970649,127.0715566,실내 스포츠/레저
진영골프연습장,실내골프/스크린골프,서울특별시 강동구 둔촌동 천호대로,에너지 회복; 스트레스 해소,37.5330201,127.1397104,실내 스포츠/레저
파인골프연습장,실내골프/스크린골프,서울특별시 강남구 역삼동 언주로,에너지 회복; 스트레스 해소,37.4963919,127.0458068,실내 스포츠/레저
프로골프아카데미,실내골프/스크린골프,서울특별시 용산구 동빙고동 장문로,에너지 회복; 스트레스 해소,37.5275656,126.994885,실내 스포츠/레저
동영문화센터,실내골프/스크린골프,서울특별시 강남구 역삼동 언주로,에너지 회복; 스트레스 해소,37.4963919,127.0458068,실내 스포츠/레저
뉴골드골프,실내골프/스크린골프,서울특별시 강남구 개포동 개포로82길,에너지 회복; 스트레스 해소,37.4886504,127.0683323,실내 스포츠/레저
팔레스골프,실내골프/스크린골프,서울특별시 용산구 동자동 후암로,에너지 회복; 스트레스 해소,37.5538566,126.973606,실내 스포츠/레저
팬다스크린골프,실내골프/스크린골프,서울특별시 서초구 방배동 방배로,에너지 회복; 스트레스 해소,37.4783113,126.9997061,실내 스포츠/레저
럭키골프클럽,실내골프/스크린골프,서울특별시 강남구 도곡동 논현로,에너지 회복; 스트레스 해소,37.4890827,127.0414718,실내 스포츠/레저
한양골프연습장,실내골프/스크린골프,서울특별시 강남구 청담동 영동대로138길,에너지 회복; 스트레스 해소,37.5230871,127.0566819,실내 스포츠/레저
서초골프클럽,실내골프/스크린골프,서울특별시 서초구 서초동 서초중앙로,에너지 회복; 스트레스 해소,37.4875623,127.0147933,실내 스포츠/레저
뉴원골프스쿨,실내골프/스크린골프,서울특별시 송파구 풍납동 올림픽로,에너지 회복; 스트레스 해소,37.5268263,127.1183989,실내 스포츠/레저
현대골프장,실내골프/스크린골프,서울특별시 송파구 삼전동 석촌호수로,에너지 회복; 스트레스 해소,37.5071463,127.0933544,실내 스포츠/레저
버디골프클럽,실내골프/스크린골프,서울특별시 관악구 신림동 신림로,에너지 회복; 스트레스 해소,37.4739083,126.9335176,실내 스포츠/레저
이글골프연습장,실내골프/스크린골프,서울특별시 송파구 오금동 마천로8길,에너지 회복; 스트레스 해소,37.5068778,127.1277103,실내 스포츠/레저
김프로골프아카데미,실내골프/스크린골프,서울특별시 송파구 송파동 가락로,에너지 회복; 스트레스 해소,37.504081,127.1141497,실내 스포츠/레저
상일골프스쿨,실내골프/스크린골프,서울특별시 강동구 상일동 상암로,에너지 회복; 스트레스 해소,37.5457865,127.1614564,실내 스포츠/레저
교대골프연습장,실내골프/스크린골프,서울특별시 서초구 서초동 서초대로,에너지 회복; 스트레스 해소,37.4943665,127.0161747,실내 스포츠/레저
포시즌스크린골프,실내골프/스크린골프,서울특별시 송파구 송파동 오금로,에너지 회복; 스트레스 해소,37.5089417,127.1146343,실내 스포츠/레저
상아골프연습장,실내골프/스크린골프,서울특별시 송파구 오금동 오금로,에너지 회복; 스트레스 해소,37.5030459,127.1265606,실내 스포츠/레저
대영골프연습장,실내골프/스크린골프,서울특별시 서초구 서초동 효령로,에너지 회복; 스트레스 해소,37.4864209,127.0214463,실내 스포츠/레저
대원골프연습장,실내골프/스크린골프,서울특별시 서초구 서초동 서초대로,에너지 회복; 스트레스 해소,37.4943665,127.0161747,실내 스포츠/레저
코하골프연습장,실내골프/스크린골프,서울특별시 관악구 신림동 남부순환로,에너지 회복; 스트레스 해소,37.4840758,126.9279131,실내 스포츠/레저
PGA골프클리닉,실내골프/스크린골프,서울특별시 강남구 개포동 개포로,에너지 회복; 스트레스 해소,37.489715,127.0695778,실내 스포츠/레저
대동골프연습장,실내골프/스크린골프,서울특별시 구로구 구로동 구로동로47길,에너지 회복; 스트레스 해소,37.4975194,126.8817958,실내 스포츠/레저
동호골프연습장,실외골프연습장,서울특별시 성북구 석관동 돌곶이로22가길,에너지 회복; 스트레스 해소,37.6099071,127.0599509,실외 스포츠/레저
인토골프연습장,실내골프/스크린골프,서울특별시 송파구 가락동 송이로,에너지 회복; 스트레스 해소,37.4976311,127.1210496,실내 스포츠/레저
서경골프클럽,실내골프/스크린골프,서울특별시 마포구 서교동 잔다리로,에너지 회복; 스트레스 해소,37.5569376,126.9141526,실내 스포츠/레저
임페리얼골프아카데미,실내골프/스크린골프,서울특별시 성동구 행당동 왕십리로,에너지 회복; 스트레스 해소,37.5585868,127.0379182,실내 스포츠/레저
포시즌골프연습장,실내골프/스크린골프,서울특별시 양천구 신월동 남부순환로,에너지 회복; 스트레스 해소,37.5327968,126.8304943,실내 스포츠/레저
정릉골프클럽,실외골프연습장,서울특별시 성북구 정릉동 정릉로,에너지 회복; 스트레스 해소,37.611849,126.9922832,실외 스포츠/레저
스포피아골프,실외골프연습장,서울특별시 강남구 청담동 학동로95길,에너지 회복; 스트레스 해소,37.5216881,127.0538226,실외 스포츠/레저
비전골프연습장,실외골프연습장,서울특별시 송파구 삼전동 ,에너지 회복; 스트레스 해소,37.5014521,127.0901512,실외 스포츠/레저
김포국제공항골프포트,실외골프연습장,서울특별시 강서구 공항동 하늘길,에너지 회복; 스트레스 해소,37.5580784,126.8059344,실외 스포츠/레저
파스텔골프클럽,실외골프연습장,서울특별시 서초구 잠원동 신반포로33길,에너지 회복; 스트레스 해소,37.5127961,127.0098265,실외 스포츠/레저
중계골프연습장,실외골프연습장,서울특별시 노원구 중계동 중계로,에너지 회복; 스트레스 해소,37.6413977,127.0832957,실외 스포츠/레저
갤럭시아골프클럽,실외골프연습장,서울특별시 서초구 양재동 바우뫼로12길,에너지 회복; 스트레스 해소,37.4690867,127.0332845,실외 스포츠/레저
위너스골프클럽,실외골프연습장,서울특별시 금천구 독산동 시흥대로,에너지 회복; 스트레스 해소,37.4684383,126.8980548,실외 스포츠/레저
당산골프클럽,실외골프연습장,서울특별시 영등포구 당산동3가 당산로31길,에너지 회복; 스트레스 해소,37.5272681,126.8948022,실외 스포츠/레저
르까프골프,실외골프연습장,서울특별시 강남구 대치동 역삼로98길,에너지 회복; 스트레스 해소,37.5038133,127.0645501,실외 스포츠/레저
효창골프클럽,실외골프연습장,서울특별시 용산구 청파동3가 효창원로,에너지 회복; 스트레스 해소,37.5426503,126.962189,실외 스포츠/레저
증산골프연습장,실외골프연습장,서울특별시 은평구 증산동 증산로3길,에너지 회복; 스트레스 해소,37.5812891,126.9058908,실외 스포츠/레저
동주골프연습장,실외골프연습장,서울특별시 송파구 방이동 오금로11길,에너지 회복; 스트레스 해소,37.5155822,127.1141604,실외 스포츠/레저
도봉종합골프,실외골프연습장,서울특별시 도봉구 창동 해등로3길,에너지 회복; 스트레스 해소,37.6468721,127.041772,실외 스포츠/레저
아넥스골프클럽,실외골프연습장,서울특별시 송파구 방이동 오금로19길,에너지 회복; 스트레스 해소,37.5112279,127.1140578,실외 스포츠/레저
1005골프연습장,실외골프연습장,서울특별시 강동구 천호동 구천면로,에너지 회복; 스트레스 해소,37.5469479,127.1339475,실외 스포츠/레저
공원골프연습장,실외골프연습장,서울특별시 송파구 방이동 백제고분로,에너지 회복; 스트레스 해소,37.5133798,127.1141211,실외 스포츠/레저
오케이휘트니스,헬스/휘트니스,서울특별시 강남구 신사동 논현로,스트레스 해소; 감정 자극,37.5221386,127.0281594,피트니스/운동시설
럭키레포츠타운,실외골프연습장,서울특별시 강북구 번동 한천로,에너지 회복; 스트레스 해소,37.6315714,127.0400311,실외 스포츠/레저
올림픽골프클럽,실외골프연습장,서울특별시 종로구 평창동 평창문화로,에너지 회복; 스트레스 해소,37.60421,126.9634721,실외 스포츠/레저
스포타임골프,실외골프연습장,서울특별시 서초구 양재동 강남대로,에너지 회복; 스트레스 해소,37.4716569,127.0385394,실외 스포츠/레저
용마골프클럽,실외골프연습장,서울특별시 중랑구 망우동 ,에너지 회복; 스트레스 해소,37.6008638,127.1076269,실외 스포츠/레저
힐스포파크골프,실외골프연습장,서울특별시 동대문구 답십리동 답십리로,에너지 회복; 스트레스 해소,37.5747327,127.0499421,실외 스포츠/레저
오동골프클럽,실외골프연습장,서울특별시 강북구 번동 오현로,에너지 회복; 스트레스 해소,37.6291546,127.0383981,실외 스포츠/레저
원골프클럽,실외골프연습장,서울특별시 구로구 고척동 중앙로,에너지 회복; 스트레스 해소,37.4997829,126.8641328,실외 스포츠/레저
렉스골프클럽,실외골프연습장,서울특별시 서대문구 홍은동 연희로41길,에너지 회복; 스트레스 해소,37.591422,126.934463,실외 스포츠/레저
월계골프연습장,실외골프연습장,서울특별시 노원구 월계동 초안산로2길,에너지 회복; 스트레스 해소,37.6332374,127.0582922,실외 스포츠/레저
농꿀가족농원낚시터,낚시터,서울특별시 은평구 진관동 의상봉길,안정감; 감정 정화,37.6528699,126.9427061,실외 스포츠/레저
호반실내낚시터,낚시터,서울특별시 강서구 내발산동 강서로,안정감; 감정 정화,37.5507788,126.8363291,실외 스포츠/레저
장충리틀야구장,지역야구장,서울특별시 중구 장충동2가 ,에너지 회복; 스트레스 해소,37.5541467,127.0002445,경기장/관람시설
배명야구장,지역야구장,서울특별시 송파구 석촌동 ,에너지 회복; 스트레스 해소,37.5024827,127.103495,경기장/관람시설
광나루한강공원광나루유원지야구장,지역야구장,서울특별시 송파구 풍납동 ,에너지 회복; 스트레스 해소,37.5337445,127.1150318,경기장/관람시설
어린이대공원잔디축구장,지역축구장,서울특별시 광진구 능동 능동로,에너지 회복; 스트레스 해소,37.5534476,127.0777669,경기장/관람시설
초안산근린공원창골잔디구장,지역축구장,서울특별시 도봉구 창동 ,에너지 회복; 스트레스 해소,37.6525981,127.047978,경기장/관람시설
은평구민축구장,지역축구장,서울특별시 은평구 진관동 진관1로,에너지 회복; 스트레스 해소,37.6330332,126.9298849,경기장/관람시설
강북구민운동장,지역(마을/단지)운동장,서울특별시 강북구 번동 오현로,에너지 회복; 스트레스 해소,37.6291546,127.0383981,경기장/관람시설
대림운동장,지역(마을/단지)운동장,서울특별시 영등포구 대림동 가마산로31길,에너지 회복; 스트레스 해소,37.5003388,126.8937751,경기장/관람시설
방죽소운동장,지역(마을/단지)운동장,서울특별시 강동구 고덕동 고덕로,에너지 회복; 스트레스 해소,37.556037,127.1455687,경기장/관람시설
제2월곡인조잔디구장,지역(마을/단지)운동장,서울특별시 성북구 상월곡동 장월로3길,에너지 회복; 스트레스 해소,37.6092157,127.0442348,경기장/관람시설
국회의사당둔치운동장,지역(마을/단지)운동장,서울특별시 영등포구 여의도동 의사당대로,에너지 회복; 스트레스 해소,37.5264945,126.9190922,경기장/관람시설
중랑잔디운동장,공설/시민운동장,서울특별시 중랑구 망우동 ,에너지 회복; 스트레스 해소,37.6008638,127.1076269,경기장/관람시설
효창공원효창운동장,지역(마을/단지)운동장,서울특별시 용산구 효창동 효창원로,에너지 회복; 스트레스 해소,37.5426503,126.962189,경기장/관람시설
씨랄라워터파크,워터파크,서울특별시 영등포구 문래동3가 문래로,감정 자극; 스트레스 해소,37.5188225,126.8966881,수영/수상스포츠
CSH골프연습장,실내골프/스크린골프,서울특별시 영등포구 여의도동 국제금융로6길,에너지 회복; 스트레스 해소,37.521872,126.9275525,실내 스포츠/레저
CSH헬스클럽,헬스/휘트니스,서울특별시 영등포구 여의도동 국제금융로6길,스트레스 해소; 감정 자극,37.521872,126.9275525,피트니스/운동시설
WOW스포츠아카데미,스포츠센터,서울특별시 영등포구 여의도동 국제금융로,에너지 회복; 스트레스 해소,37.5209509,126.9318158,피트니스/운동시설
스카이24,당구장,서울특별시 영등포구 여의도동 국제금융로,스트레스 해소; 감정 자극,37.5209509,126.9318158,실내 스포츠/레저
돈암문화스포츠센터,스포츠센터,서울특별시 성북구 동소문동6가 동소문로13길,에너지 회복; 스트레스 해소,37.5938195,127.0117806,피트니스/운동시설
극동스포츠센터,스포츠센터,서울특별시 강남구 신사동 압구정로,에너지 회복; 스트레스 해소,37.5283635,127.0383787,피트니스/운동시설
21세기탁구장,탁구장,서울특별시 강동구 명일동 동남로73길,에너지 회복; 스트레스 해소,37.5528897,127.1548048,피트니스/운동시설
메이필드호텔골프연습장,실외골프연습장,서울특별시 강서구 외발산동 방화대로,에너지 회복; 스트레스 해소,37.5505609,126.8166548,실외 스포츠/레저
잠실종합운동장보조경기장,주/보조경기장,서울특별시 송파구 잠실동 올림픽로,에너지 회복; 스트레스 해소,37.5115211,127.0757714,경기장/관람시설
잠실종합운동장올림픽주경기장,주/보조경기장,서울특별시 송파구 잠실동 올림픽로,에너지 회복; 스트레스 해소,37.5115211,127.0757714,경기장/관람시설
잠실한강공원잠실수영장,일반수영장,서울특별시 송파구 잠실동 한가람로,에너지 회복; 안정감,37.5162541,127.0841489,수영/수상스포츠
잠원한강공원수영장,일반수영장,서울특별시 서초구 잠원동 잠원로,에너지 회복; 안정감,37.5204886,127.0152037,수영/수상스포츠
뚝섬한강공원뚝섬지구수영장,일반수영장,서울특별시 광진구 자양동 ,에너지 회복; 안정감,37.5316904,127.0749477,수영/수상스포츠
망원한강공원수영장,일반수영장,서울특별시 마포구 망원동 ,에너지 회복; 안정감,37.5560241,126.9009751,수영/수상스포츠
국도체육관,지역실내체육관,서울특별시 광진구 능동 천호대로112길,에너지 회복; 스트레스 해소,37.5545532,127.0808081,피트니스/운동시설
보성태권도장,지역실내체육관,서울특별시 광진구 광장동 아차산로,에너지 회복; 스트레스 해소,37.5422968,127.0993383,피트니스/운동시설
동명체육관,지역실내체육관,서울특별시 성동구 마장동 마장로27길,에너지 회복; 스트레스 해소,37.5669939,127.034266,피트니스/운동시설
삼부그린스포츠센터,스포츠센터,서울특별시 중랑구 신내동 용마산로,에너지 회복; 스트레스 해소,37.6136706,127.1008398,피트니스/운동시설
금강스포츠센터,스포츠센터,서울특별시 강서구 방화동 금낭화로,에너지 회복; 스트레스 해소,37.5799066,126.8109245,피트니스/운동시설
삼성레포츠센터,스포츠센터,서울특별시 서초구 서초동 서초대로64길,에너지 회복; 스트레스 해소,37.4916866,127.021236,피트니스/운동시설
메디스클럽,스포츠센터,서울특별시 강남구 논현동 봉은사로,에너지 회복; 스트레스 해소,37.5055954,127.0280206,피트니스/운동시설
성모재활센터,스포츠센터,서울특별시 중랑구 신내동 신내로,에너지 회복; 스트레스 해소,37.6170231,127.0920103,피트니스/운동시설
로제우스레포츠센터,스포츠센터,서울특별시 종로구 구기동 진흥로,에너지 회복; 스트레스 해소,37.6085043,126.9555665,피트니스/운동시설
시그마스포츠,스포츠센터,서울특별시 송파구 신천동 올림픽로,에너지 회복; 스트레스 해소,37.5146284,127.1018612,피트니스/운동시설
서울스포츠클럽,스포츠센터,서울특별시 종로구 연지동 김상옥로,에너지 회복; 스트레스 해소,37.5732512,127.0012494,피트니스/운동시설
청담스포피아,스포츠센터,서울특별시 강남구 청담동 학동로95길,에너지 회복; 스트레스 해소,37.5216881,127.0538226,피트니스/운동시설
로얄스포츠센터,스포츠센터,서울특별시 중랑구 중화동 망우로,에너지 회복; 스트레스 해소,37.5946423,127.0786774,피트니스/운동시설
코하스포츠센터,스포츠센터,서울특별시 관악구 봉천동 관악로,에너지 회복; 스트레스 해소,37.4812588,126.9527443,피트니스/운동시설
연세스포츠센터,스포츠센터,서울특별시 서대문구 홍제동 통일로,에너지 회복; 스트레스 해소,37.5838023,126.9495888,피트니스/운동시설
구의야구공원,지역야구장,서울특별시 광진구 구의동 워커힐로,에너지 회복; 스트레스 해소,37.5474681,127.098195,경기장/관람시설
여의도한강공원파크골프장,퍼블릭골프장,서울특별시 영등포구 여의도동 ,에너지 회복; 스트레스 해소,37.5284646,126.9300522,실외 스포츠/레저
올림픽기념국민생활관,지역체육센터,서울특별시 종로구 혜화동 성균관로,에너지 회복; 스트레스 해소,37.585413,126.9972643,피트니스/운동시설
잠실종합운동장삼성썬더스홈구장,대형실내체육관,서울특별시 송파구 잠실동 올림픽로,에너지 회복; 스트레스 해소,37.5115211,127.0757714,실내 스포츠/레저
뚝섬한강공원쥬티클럽,수상스포츠,서울특별시 광진구 자양동 ,감정 자극; 스트레스 해소,37.5316904,127.0749477,수영/수상스포츠
뚝섬한강공원슈퍼스타즈,수상스포츠,서울특별시 광진구 자양동 ,감정 자극; 스트레스 해소,37.5316904,127.0749477,수영/수상스포츠
오금근린공원송파인라인경기장,스케이트장,서울특별시 송파구 오금동 오금로,에너지 회복; 스트레스 해소,37.5026783,127.1271012,겨울스포츠
종로문화체육센터,스포츠센터,서울특별시 종로구 사직동 인왕산로1길,에너지 회복; 스트레스 해소,37.5754588,126.9649064,피트니스/운동시설
키움홈구장,프로야구경기장,서울특별시 구로구 고척동 경인로,에너지 회복; 스트레스 해소,37.4975857,126.8637132,경기장/관람시설
서울월드컵경기장보조경기장,주/보조경기장,서울특별시 마포구 성산동 ,에너지 회복; 스트레스 해소,37.56775,126.90263,경기장/관람시설
천마근린공원축구장,지역축구장,서울특별시 송파구 마천동 성내천로35길,에너지 회복; 스트레스 해소,37.4987117,127.155697,경기장/관람시설
로또당구클럽,당구장,서울특별시 강동구 둔촌동 천호대로,스트레스 해소; 감정 자극,37.5336637,127.1396323,실내 스포츠/레저
한양당구장,당구장,서울특별시 구로구 구로동 구로동로35길,스트레스 해소; 감정 자극,37.4937521,126.8827132,실내 스포츠/레저
프로당구클럽,당구장,서울특별시 구로구 구로동 구로동로,스트레스 해소; 감정 자극,37.4860547,126.8855838,실내 스포츠/레저
RGDMC,헬스/휘트니스,서울특별시 마포구 상암동 월드컵북로,스트레스 해소; 감정 자극,37.5825783,126.8832349,피트니스/운동시설
봉프로,당구장,서울특별시 광진구 화양동 능동로,스트레스 해소; 감정 자극,37.5405754,127.0708976,실내 스포츠/레저
스포캐슬스포츠센터,스포츠센터,서울특별시 송파구 신천동 올림픽로,에너지 회복; 스트레스 해소,37.5146284,127.1018612,피트니스/운동시설
엠휘트니스,헬스/휘트니스,서울특별시 강북구 미아동 도봉로,스트레스 해소; 감정 자극,37.6308331,127.024486,피트니스/운동시설
서울월드컵경기장인조축구경기장,일반경기장,서울특별시 마포구 성산동 ,에너지 회복; 스트레스 해소,37.56775,126.90263,경기장/관람시설
상암스크린골프존,실내골프/스크린골프,서울특별시 마포구 상암동 월드컵북로,에너지 회복; 스트레스 해소,37.5825783,126.8832349,실내 스포츠/레저
GR휘트니스,헬스/휘트니스,서울특별시 마포구 상암동 월드컵북로,스트레스 해소; 감정 자극,37.5825783,126.8832349,피트니스/운동시설
우리은행체육관,지역실내체육관,서울특별시 성북구 장위동 돌곶이로34길,에너지 회복; 스트레스 해소,37.6165344,127.051189,피트니스/운동시설
KTA장충장호테니스장,테니스장,서울특별시 중구 장충동2가 장충단로,에너지 회복; 스트레스 해소,37.5622474,127.0064864,피트니스/운동시설
잠실코베튜브눈썰매장,눈썰매장,서울특별시 송파구 잠실동 올림픽로,감정 자극; 스트레스 해소,37.5115211,127.0757714,겨울스포츠
망원한강공원눈썰매장,눈썰매장,서울특별시 마포구 망원동 ,감정 자극; 스트레스 해소,37.5560241,126.9009751,겨울스포츠
덕수수영장,일반수영장,서울특별시 중구 정동 덕수궁길,에너지 회복; 안정감,37.568894,126.9742772,수영/수상스포츠
살곶이체육공원축구장,지역축구장,서울특별시 성동구 사근동 ,에너지 회복; 스트레스 해소,37.5589948,127.0480281,경기장/관람시설
용마공원용마랜드눈썰매장,눈썰매장,서울특별시 중랑구 망우동 망우로70길,감정 자극; 스트레스 해소,37.5960882,127.1034314,겨울스포츠
타임스퀘어코오롱스포렉트,헬스/휘트니스,서울특별시 영등포구 영등포동4가 영중로,스트레스 해소; 감정 자극,37.5168714,126.9064614,피트니스/운동시설
CSH스포츠몰,스포츠센터,서울특별시 영등포구 여의도동 여의대로,에너지 회복; 스트레스 해소,37.5285149,126.9286196,피트니스/운동시설
현대골프,실내골프/스크린골프,서울특별시 영등포구 여의도동 국회대로70길,에너지 회복; 스트레스 해소,37.5292969,126.9202776,실내 스포츠/레저
언남문화체육센터,지역체육센터,서울특별시 서초구 양재동 동산로13길,에너지 회복; 스트레스 해소,37.4728407,127.0444923,피트니스/운동시설
이글스포렉스,실외골프연습장,서울특별시 강남구 대치동 역삼로,에너지 회복; 스트레스 해소,37.5037829,127.0595421,실외 스포츠/레저
동서골프프라자,실외골프연습장,서울특별시 용산구 청파동1가 청파로,에너지 회복; 스트레스 해소,37.5470902,126.9699215,실외 스포츠/레저
그린밸리,실내골프/스크린골프,서울특별시 강서구 방화동 방화대로47가길,에너지 회복; 스트레스 해소,37.5773418,126.8135527,실내 스포츠/레저
세원골프클럽,실내골프/스크린골프,서울특별시 양천구 신월동 화곡로,에너지 회복; 스트레스 해소,37.5395238,126.8276036,실내 스포츠/레저
제이앤제이스크린골프,실내골프/스크린골프,서울특별시 구로구 오류동 경인로,에너지 회복; 스트레스 해소,37.4911523,126.8298122,실내 스포츠/레저
시티월드골프,실내골프/스크린골프,서울특별시 구로구 오류동 경인로,에너지 회복; 스트레스 해소,37.4911523,126.8298122,실내 스포츠/레저
EG스크린골프,실내골프/스크린골프,서울특별시 강서구 화곡동 ,에너지 회복; 스트레스 해소,37.542134,126.8441752,실내 스포츠/레저
목동골프스토리,실내골프/스크린골프,서울특별시 양천구 신정동 신월로,에너지 회복; 스트레스 해소,37.5213479,126.8521006,실내 스포츠/레저
오퍼스스크린골프,실내골프/스크린골프,서울특별시 구로구 구로동 구로중앙로,에너지 회복; 스트레스 해소,37.5010998,126.8818877,실내 스포츠/레저
동아골프,실내골프/스크린골프,서울특별시 강서구 염창동 양천로,에너지 회복; 스트레스 해소,37.5477854,126.8796328,실내 스포츠/레저
구로스크린골프,실내골프/스크린골프,서울특별시 구로구 구로동 경인로,에너지 회복; 스트레스 해소,37.5003017,126.8758793,실내 스포츠/레저
JK골프스쿨,실내골프/스크린골프,서울특별시 양천구 목동 목동서로,에너지 회복; 스트레스 해소,37.5358692,126.8768774,실내 스포츠/레저
그린스포피아,실내골프/스크린골프,서울특별시 양천구 목동 목동동로,에너지 회복; 스트레스 해소,37.5352107,126.8793143,실내 스포츠/레저
아이엔엔스크린골프,실내골프/스크린골프,서울특별시 마포구 상암동 상암산로1길,에너지 회복; 스트레스 해소,37.5790032,126.8869043,실내 스포츠/레저
킹스크린골프,실내골프/스크린골프,서울특별시 구로구 신도림동 경인로65길,에너지 회복; 스트레스 해소,37.5093479,126.8857076,실내 스포츠/레저
씨엘골프아카데미,실내골프/스크린골프,서울특별시 영등포구 문래동3가 선유로,에너지 회복; 스트레스 해소,37.5194314,126.8893618,실내 스포츠/레저
스카이스크린골프,실내골프/스크린골프,서울특별시 금천구 독산동 시흥대로,에너지 회복; 스트레스 해소,37.4669034,126.8978902,실내 스포츠/레저
GLG휘트니스센터,헬스/휘트니스,서울특별시 영등포구 양평동4가 선유동2로,스트레스 해소; 감정 자극,37.5300409,126.8948261,피트니스/운동시설
대산골프연습장,실내골프/스크린골프,서울특별시 금천구 시흥동 시흥대로,에너지 회복; 스트레스 해소,37.4479738,126.9033279,실내 스포츠/레저
금천스크린골프,실내골프/스크린골프,서울특별시 금천구 시흥동 시흥대로,에너지 회복; 스트레스 해소,37.4479738,126.9033279,실내 스포츠/레저
피지에이골프스쿨,실내골프/스크린골프,서울특별시 금천구 시흥동 시흥대로,에너지 회복; 스트레스 해소,37.4479738,126.9033279,실내 스포츠/레저
퓨어골프아카데미,실내골프/스크린골프,서울특별시 영등포구 영등포동8가 영중로41길,에너지 회복; 스트레스 해소,37.5286645,126.9048911,실내 스포츠/레저
성산스크린골프존,실내골프/스크린골프,서울특별시 마포구 성산동 월드컵북로,에너지 회복; 스트레스 해소,37.5690037,126.9045248,실내 스포츠/레저
신아골프스쿨,실내골프/스크린골프,서울특별시 마포구 성산동 월드컵로36길,에너지 회복; 스트레스 해소,37.566925,126.903779,실내 스포츠/레저
카멜리아스포츠센터,실내골프/스크린골프,서울특별시 금천구 시흥동 금하로,에너지 회복; 스트레스 해소,37.4516854,126.9073247,실내 스포츠/레저
현대스크린골프,실내골프/스크린골프,서울특별시 동작구 신대방동 여의대방로,에너지 회복; 스트레스 해소,37.4967762,126.9159857,실내 스포츠/레저
엠파이어리버,실내골프/스크린골프,서울특별시 마포구 합정동 양화로,에너지 회복; 스트레스 해소,37.5494459,126.9136202,실내 스포츠/레저
갤러리골프스쿨,실내골프/스크린골프,서울특별시 은평구 갈현동 서오릉로,에너지 회복; 스트레스 해소,37.6166188,126.9071802,실내 스포츠/레저
VR골프연습장,실내골프/스크린골프,서울특별시 은평구 역촌동 연서로,에너지 회복; 스트레스 해소,37.6024408,126.9158238,실내 스포츠/레저
한마음골프스쿨,실내골프/스크린골프,서울특별시 관악구 신림동 남부순환로,에너지 회복; 스트레스 해소,37.4840758,126.9279131,실내 스포츠/레저
서교스크린,실내골프/스크린골프,서울특별시 마포구 서교동 월드컵북로7길,에너지 회복; 스트레스 해소,37.5579021,126.9166593,실내 스포츠/레저
W스크린골프존,실내골프/스크린골프,서울특별시 서대문구 남가좌동 모래내로,에너지 회복; 스트레스 해소,37.5761323,126.9268048,실내 스포츠/레저
에스디골프클럽,실내골프/스크린골프,서울특별시 마포구 서교동 월드컵북로,에너지 회복; 스트레스 해소,37.5567685,126.9196652,실내 스포츠/레저
파인골프클럽,실외골프연습장,서울특별시 마포구 합정동 독막로,에너지 회복; 스트레스 해소,37.5484508,126.9158484,실외 스포츠/레저
보라매스크린골프,실내골프/스크린골프,서울특별시 동작구 신대방동 보라매로5길,에너지 회복; 스트레스 해소,37.4909608,126.9228422,실내 스포츠/레저
홀인원골프연습장,실외골프연습장,서울특별시 은평구 역촌동 서오릉로,에너지 회복; 스트레스 해소,37.610404,126.9176978,실외 스포츠/레저
동작II스크린골프,실내골프/스크린골프,서울특별시 동작구 대방동 여의대방로,에너지 회복; 스트레스 해소,37.5077321,126.923499,실내 스포츠/레저
드림골프연습장,실내골프/스크린골프,서울특별시 관악구 신림동 봉천로,에너지 회복; 스트레스 해소,37.4883952,126.9301212,실내 스포츠/레저
여의도스크린,실내골프/스크린골프,서울특별시 영등포구 여의도동 국제금융로6길,에너지 회복; 스트레스 해소,37.521872,126.9275525,실내 스포츠/레저
위너스스크린골프,실내골프/스크린골프,서울특별시 관악구 신림동 신림로,에너지 회복; 스트레스 해소,37.4739083,126.9335176,실내 스포츠/레저
아일랜드토탈휘트니스,헬스/휘트니스,서울특별시 관악구 신림동 신림로64길,스트레스 해소; 감정 자극,37.4851775,126.931894,피트니스/운동시설
비바스크린골프,실내골프/스크린골프,서울특별시 영등포구 여의도동 여의대방로67길,에너지 회복; 스트레스 해소,37.520034,126.9303173,실내 스포츠/레저
마포스크린골프,실내골프/스크린골프,서울특별시 마포구 구수동 창전로,에너지 회복; 스트레스 해소,37.545109,126.9313812,실내 스포츠/레저
일레인스포츠,실내골프/스크린골프,서울특별시 영등포구 여의도동 국제금융로,에너지 회복; 스트레스 해소,37.5255491,126.9274753,실내 스포츠/레저
대호골프스쿨,실내골프/스크린골프,서울특별시 은평구 불광동 불광로,에너지 회복; 스트레스 해소,37.6193448,126.9319202,실내 스포츠/레저
한독골프연습장,실내골프/스크린골프,서울특별시 서대문구 홍은동 연희로,에너지 회복; 스트레스 해소,37.5911404,126.9407456,실내 스포츠/레저
필드스토리,실내골프/스크린골프,서울특별시 마포구 용강동 토정로,에너지 회복; 스트레스 해소,37.540795,126.9428921,실내 스포츠/레저
상도골골프연습장,실내골프/스크린골프,서울특별시 동작구 상도동 양녕로26길,에너지 회복; 스트레스 해소,37.4971266,126.9440442,실내 스포츠/레저
삼창스크린골프,실내골프/스크린골프,서울특별시 마포구 도화동 마포대로,에너지 회복; 스트레스 해소,37.5367823,126.9418272,실내 스포츠/레저
공덕스크린,실내골프/스크린골프,서울특별시 마포구 도화동 독막로,에너지 회복; 스트레스 해소,37.5428706,126.9487736,실내 스포츠/레저
KOHAN스포티지,실내골프/스크린골프,서울특별시 관악구 봉천동 관악로,에너지 회복; 스트레스 해소,37.4812588,126.9527443,실내 스포츠/레저
시카고스크린골프,실내골프/스크린골프,서울특별시 마포구 아현동 마포대로,에너지 회복; 스트레스 해소,37.55158,126.9556528,실내 스포츠/레저
로제우스레포츠센터골프연습장,실내골프/스크린골프,서울특별시 종로구 구기동 진흥로,에너지 회복; 스트레스 해소,37.6086262,126.955634,실내 스포츠/레저
누리온가족건강센터,헬스/휘트니스,서울특별시 서대문구 영천동 독립문로,스트레스 해소; 감정 자극,37.5699403,126.9614259,피트니스/운동시설
구기스크린골프연습장,실내골프/스크린골프,서울특별시 종로구 구기동 진흥로,에너지 회복; 스트레스 해소,37.6086262,126.955634,실내 스포츠/레저
경기골프스쿨,실내골프/스크린골프,서울특별시 서대문구 충정로2가 경기대로,에너지 회복; 스트레스 해소,37.5624361,126.9618463,실내 스포츠/레저
이수스크린골프,실내골프/스크린골프,서울특별시 동작구 사당동 사당로17길,에너지 회복; 스트레스 해소,37.4849092,126.9734819,실내 스포츠/레저
동아골프연습장,실내골프/스크린골프,서울특별시 중구 북창동 남대문로1길,에너지 회복; 스트레스 해소,37.5627755,126.9773205,실내 스포츠/레저
화인골프,실내골프/스크린골프,서울특별시 용산구 이촌동 이촌로,에너지 회복; 스트레스 해소,37.5220444,126.963533,실내 스포츠/레저
레몬스크린골프,실내골프/스크린골프,서울특별시 종로구 관철동 청계천로,에너지 회복; 스트레스 해소,37.568345,126.989969,실내 스포츠/레저
김소영골프스쿨,실내골프/스크린골프,서울특별시 서초구 방배동 방배로,에너지 회복; 스트레스 해소,37.4783113,126.9997061,실내 스포츠/레저
엑스윈스크린골프,실내골프/스크린골프,서울특별시 중구 저동2가 수표로,에너지 회복; 스트레스 해소,37.5641048,126.990129,실내 스포츠/레저
스크린파크,실내골프/스크린골프,서울특별시 서초구 방배동 방배로,에너지 회복; 스트레스 해소,37.4783113,126.9997061,실내 스포츠/레저
비쥬얼테크닉스,실내골프/스크린골프,서울특별시 중구 을지로3가 을지로,에너지 회복; 스트레스 해소,37.5668018,127.0001915,실내 스포츠/레저
하나스크린골프,실내골프/스크린골프,서울특별시 서초구 방배동 방배로,에너지 회복; 스트레스 해소,37.4783113,126.9997061,실내 스포츠/레저
수남스크린골프,실내골프/스크린골프,서울특별시 중구 인현동2가 퇴계로41길,에너지 회복; 스트레스 해소,37.5630246,126.9961343,실내 스포츠/레저
이지골프클리닉,실내골프/스크린골프,서울특별시 서초구 방배동 방배로8길,에너지 회복; 스트레스 해소,37.4794981,126.9997398,실내 스포츠/레저
코리아스크린골프,실내골프/스크린골프,서울특별시 중구 주교동 청계천로,에너지 회복; 스트레스 해소,37.568923,126.9996513,실내 스포츠/레저
에이스골프연습장,실내골프/스크린골프,서울특별시 서초구 방배동 방배로,에너지 회복; 스트레스 해소,37.4783113,126.9997061,실내 스포츠/레저
대호골프연습장,실내골프/스크린골프,서울특별시 종로구 연지동 김상옥로,에너지 회복; 스트레스 해소,37.5732512,127.0012494,실내 스포츠/레저
풀스윙,실내골프/스크린골프,서울특별시 중구 오장동 동호로33길,에너지 회복; 스트레스 해소,37.5654058,127.0006531,실내 스포츠/레저
한경스포츠클럽골프연습장,실내골프/스크린골프,서울특별시 서초구 반포동 신반포로,에너지 회복; 스트레스 해소,37.5044399,126.9996177,실내 스포츠/레저
한남스포렉스,실내골프/스크린골프,서울특별시 용산구 한남동 독서당로,에너지 회복; 스트레스 해소,37.5331534,127.0072808,실내 스포츠/레저
남산타운골프연습장,실내골프/스크린골프,서울특별시 중구 신당동 다산로,에너지 회복; 스트레스 해소,37.5627173,127.01522,실내 스포츠/레저
4D스크린골프,실내골프/스크린골프,서울특별시 서초구 서초동 서초대로,에너지 회복; 스트레스 해소,37.4943665,127.0161747,실내 스포츠/레저
레포세움,실내골프/스크린골프,서울특별시 서초구 서초동 서초중앙로,에너지 회복; 스트레스 해소,37.4875623,127.0147933,실내 스포츠/레저
맨하탄골프존,실내골프/스크린골프,서울특별시 중구 신당동 마장로1길,에너지 회복; 스트레스 해소,37.5687305,127.0122583,실내 스포츠/레저
충무스크린,실내골프/스크린골프,서울특별시 중구 신당동 퇴계로73가길,에너지 회복; 스트레스 해소,37.5667214,127.0133773,실내 스포츠/레저
고산자로,실내골프/스크린골프,서울특별시 서초구 서초동 서초중앙로,에너지 회복; 스트레스 해소,37.4875623,127.0147933,실내 스포츠/레저
파워골프아카데미,실내골프/스크린골프,서울특별시 서초구 서초동 서초중앙로,에너지 회복; 스트레스 해소,37.4875623,127.0147933,실내 스포츠/레저
서초리얼스크린골프,실내골프/스크린골프,서울특별시 서초구 서초동 서초중앙로,에너지 회복; 스트레스 해소,37.4875623,127.0147933,실내 스포츠/레저
WIN스크린,실내골프/스크린골프,서울특별시 서초구 서초동 서초중앙로,에너지 회복; 스트레스 해소,37.4875623,127.0147933,실내 스포츠/레저
교대스크린골프,실내골프/스크린골프,서울특별시 서초구 서초동 서초대로,에너지 회복; 스트레스 해소,37.4943665,127.0161747,실내 스포츠/레저
온그린골프앤스크린,실내골프/스크린골프,서울특별시 성동구 옥수동 한림말길,에너지 회복; 스트레스 해소,37.540412,127.0133075,실내 스포츠/레저
비앤비스크린골프,실내골프/스크린골프,서울특별시 성북구 동선동4가 동소문로,에너지 회복; 스트레스 해소,37.5945874,127.0192647,실내 스포츠/레저
월드골프스크린,실내골프/스크린골프,서울특별시 성동구 금호동4가 독서당로,에너지 회복; 스트레스 해소,37.5457037,127.0174186,실내 스포츠/레저
골프존24시스크린골프,실내골프/스크린골프,서울특별시 강북구 번동 덕릉로,에너지 회복; 스트레스 해소,37.6348601,127.0299772,실내 스포츠/레저
우정휘트니스,헬스/휘트니스,서울특별시 서초구 서초동 강남대로,스트레스 해소; 감정 자극,37.500088,127.0262063,피트니스/운동시설
스포라이프,실내골프/스크린골프,서울특별시 강남구 논현동 논현로,에너지 회복; 스트레스 해소,37.5181326,127.0287585,실내 스포츠/레저
렉스피트니스,헬스/휘트니스,서울특별시 성동구 행당동 왕십리로,스트레스 해소; 감정 자극,37.5585868,127.0379182,피트니스/운동시설
제이탑휘트니스클럽,헬스/휘트니스,서울특별시 강남구 도곡동 남부순환로,스트레스 해소; 감정 자극,37.4852848,127.0389229,피트니스/운동시설
한양골프,실내골프/스크린골프,서울특별시 강남구 신사동 압구정로,에너지 회복; 스트레스 해소,37.5236257,127.0215285,실내 스포츠/레저
아이스크린골프,실내골프/스크린골프,서울특별시 강남구 도곡동 도곡로,에너지 회복; 스트레스 해소,37.4932782,127.0437644,실내 스포츠/레저
대림골프,실내골프/스크린골프,서울특별시 성동구 응봉동 고산자로,에너지 회복; 스트레스 해소,37.5505727,127.035668,실내 스포츠/레저
더핀스크린골프,실내골프/스크린골프,서울특별시 강남구 역삼동 논현로,에너지 회복; 스트레스 해소,37.498287,127.0381392,실내 스포츠/레저
제이투에스,실내골프/스크린골프,서울특별시 강남구 도곡동 도곡로,에너지 회복; 스트레스 해소,37.4932782,127.0437644,실내 스포츠/레저
드림골프스토리,실내골프/스크린골프,서울특별시 강북구 번동 오현로,에너지 회복; 스트레스 해소,37.6272137,127.0372433,실내 스포츠/레저
도곡스크린골프,실내골프/스크린골프,서울특별시 강남구 도곡동 도곡로,에너지 회복; 스트레스 해소,37.4932782,127.0437644,실내 스포츠/레저
AT스크린골프,실내골프/스크린골프,서울특별시 서초구 양재동 강남대로6길,에너지 회복; 스트레스 해소,37.4669866,127.0430602,실내 스포츠/레저
양재제일골프연습장,실내골프/스크린골프,서울특별시 서초구 양재동 마방로,에너지 회복; 스트레스 해소,37.4757557,127.0417177,실내 스포츠/레저
VR골프,실내골프/스크린골프,서울특별시 강남구 삼성동 학동로,에너지 회복; 스트레스 해소,37.5193563,127.0535902,실내 스포츠/레저
상록스포렉스,실내골프/스크린골프,서울특별시 강남구 역삼동 언주로,에너지 회복; 스트레스 해소,37.4963919,127.0458068,실내 스포츠/레저
강남스크린골프,실내골프/스크린골프,서울특별시 강남구 역삼동 언주로86길,에너지 회복; 스트레스 해소,37.5026188,127.0462544,실내 스포츠/레저
휴스크린골프,실내골프/스크린골프,서울특별시 강남구 역삼동 테헤란로44길,에너지 회복; 스트레스 해소,37.5020012,127.0453325,실내 스포츠/레저
제네시스휘트니스,헬스/휘트니스,서울특별시 강남구 역삼동 테헤란로48길,스트레스 해소; 감정 자극,37.5029974,127.0459168,피트니스/운동시설
워터파크골프연습장,실내골프/스크린골프,서울특별시 성동구 성수동1가 왕십리로,에너지 회복; 스트레스 해소,37.5397618,127.04374,실내 스포츠/레저
역삼아이파크스크린,실내골프/스크린골프,서울특별시 강남구 역삼동 역삼로,에너지 회복; 스트레스 해소,37.4995545,127.0478452,실내 스포츠/레저
청담스크린골프,실내골프/스크린골프,서울특별시 강남구 청담동 학동로,에너지 회복; 스트레스 해소,37.5181087,127.0457549,실내 스포츠/레저
골든메카스크린골프,실내골프/스크린골프,서울특별시 동대문구 답십리동 천호대로69길,에너지 회복; 스트레스 해소,37.56935,127.0523585,실내 스포츠/레저
굿모닝골프스쿨,실내골프/스크린골프,서울특별시 성동구 성수동2가 뚝섬로,에너지 회복; 스트레스 해소,37.5380483,127.0579596,실내 스포츠/레저
씨티스크린골프,실내골프/스크린골프,서울특별시 강남구 대치동 도곡로,에너지 회복; 스트레스 해소,37.5001811,127.0648705,실내 스포츠/레저
테헤란스크린골프,실내골프/스크린골프,서울특별시 강남구 삼성동 테헤란로,에너지 회복; 스트레스 해소,37.5082495,127.060653,실내 스포츠/레저
VR골프아이골프점,실내골프/스크린골프,서울특별시 강남구 삼성동 학동로,에너지 회복; 스트레스 해소,37.5193563,127.0535902,실내 스포츠/레저
성동코레월드,실내골프/스크린골프,서울특별시 성동구 성수동2가 뚝섬로,에너지 회복; 스트레스 해소,37.5380483,127.0579596,실내 스포츠/레저
언더파스크린골프,실내골프/스크린골프,서울특별시 동대문구 전농동 사가정로,에너지 회복; 스트레스 해소,37.5747671,127.0536195,실내 스포츠/레저
은마스크린골프,실내골프/스크린골프,서울특별시 강남구 대치동 도곡로,에너지 회복; 스트레스 해소,37.5001811,127.0648705,실내 스포츠/레저
대치스크린골프,실내골프/스크린골프,서울특별시 강남구 대치동 도곡로,에너지 회복; 스트레스 해소,37.5001811,127.0648705,실내 스포츠/레저
매경쇼,실내골프/스크린골프,서울특별시 강남구 대치동 영동대로,에너지 회복; 스트레스 해소,37.5018574,127.0671243,실내 스포츠/레저
웰빙라이프휘트니스,헬스/휘트니스,서울특별시 노원구 상계동 상계로,스트레스 해소; 감정 자극,37.6614689,127.0739292,피트니스/운동시설
서울레저한강골프,실내골프/스크린골프,서울특별시 광진구 자양동 능동로,에너지 회복; 스트레스 해소,37.5375517,127.0696332,실내 스포츠/레저
휘경골프연습장,실내골프/스크린골프,서울특별시 동대문구 휘경동 망우로,에너지 회복; 스트레스 해소,37.5899957,127.0624325,실내 스포츠/레저
태초골프스쿨,실내골프/스크린골프,서울특별시 광진구 자양동 뚝섬로35길,에너지 회복; 스트레스 해소,37.535875,127.0706455,실내 스포츠/레저
이지골프클럽,실내골프/스크린골프,서울특별시 노원구 상계동 한글비석로,에너지 회복; 스트레스 해소,37.6604332,127.0719118,실내 스포츠/레저
멀리건골프스쿨,실내골프/스크린골프,서울특별시 노원구 하계동 공릉로63길,에너지 회복; 스트레스 해소,37.6350362,127.0705813,실내 스포츠/레저
클럽골프존,실내골프/스크린골프,서울특별시 동대문구 장안동 장한로18길,에너지 회복; 스트레스 해소,37.567135,127.0716446,실내 스포츠/레저
그린골프,실내골프/스크린골프,서울특별시 노원구 하계동 노원로,에너지 회복; 스트레스 해소,37.6381375,127.0770494,실내 스포츠/레저
비젼골프클럽,실내골프/스크린골프,서울특별시 노원구 중계동 한글비석로8길,에너지 회복; 스트레스 해소,37.6480656,127.0786049,실내 스포츠/레저
OK스크린골프,실내골프/스크린골프,서울특별시 광진구 자양동 아차산로,에너지 회복; 스트레스 해소,37.5388422,127.0738801,실내 스포츠/레저
상봉골프스토리,실내골프/스크린골프,서울특별시 중랑구 상봉동 상봉중앙로8길,에너지 회복; 스트레스 해소,37.6031709,127.0909283,실내 스포츠/레저
스포트론,실내골프/스크린골프,서울특별시 송파구 석촌동 석촌호수로,에너지 회복; 스트레스 해소,37.5067677,127.1001782,실내 스포츠/레저
지앤디골프아카데미,실내골프/스크린골프,서울특별시 송파구 신천동 올림픽로35길,에너지 회복; 스트레스 해소,37.5169572,127.1006557,실내 스포츠/레저
세종스크린골프,실내골프/스크린골프,서울특별시 강남구 수서동 광평로51길,에너지 회복; 스트레스 해소,37.4900792,127.1014586,실내 스포츠/레저
강동스크린골프,실내골프/스크린골프,서울특별시 강동구 성내동 성내로6길,에너지 회복; 스트레스 해소,37.5284009,127.1223568,실내 스포츠/레저
포인트골프클리닉,실내골프/스크린골프,서울특별시 강동구 성내동 성내로,에너지 회복; 스트레스 해소,37.5287555,127.1254049,실내 스포츠/레저
골프인파라다이스,실내골프/스크린골프,서울특별시 송파구 오금동 중대로25길,에너지 회복; 스트레스 해소,37.5030292,127.1275069,실내 스포츠/레저
버디스크린골프존,실내골프/스크린골프,서울특별시 송파구 오금동 위례성대로,에너지 회복; 스트레스 해소,37.5102891,127.1314015,실내 스포츠/레저
로진스크린골프,실내골프/스크린골프,서울특별시 송파구 오금동 중대로,에너지 회복; 스트레스 해소,37.503889,127.1299629,실내 스포츠/레저
웰빙휘트니스프라자,헬스/휘트니스,서울특별시 강동구 천호동 구천면로,스트레스 해소; 감정 자극,37.5429218,127.1192777,피트니스/운동시설
성심스크린골프,실내골프/스크린골프,서울특별시 강동구 길동 천호대로,에너지 회복; 스트레스 해소,37.5372256,127.1503731,실내 스포츠/레저
마스터골프연습장,실내골프/스크린골프,서울특별시 송파구 오금동 동남로,에너지 회복; 스트레스 해소,37.5056449,127.1391853,실내 스포츠/레저
노블휘트니스,헬스/휘트니스,서울특별시 강동구 길동 양재대로,스트레스 해소; 감정 자극,37.5375025,127.1398729,피트니스/운동시설
그린파크골프연습장,실내골프/스크린골프,서울특별시 강동구 명일동 명일로,에너지 회복; 스트레스 해소,37.5519039,127.1497771,실내 스포츠/레저
명일스크린골프,실내골프/스크린골프,서울특별시 강동구 명일동 동남로,에너지 회복; 스트레스 해소,37.5432983,127.1544955,실내 스포츠/레저
잉어이야기,실내낚시터,서울특별시 관악구 신림동 남부순환로,안정감; 감정 정화,37.4840758,126.9279131,실내 스포츠/레저
조이골프,실내골프/스크린골프,서울특별시 서초구 서초동 효령로,에너지 회복; 스트레스 해소,37.4864209,127.0214463,실내 스포츠/레저
동원스크린골프,실내골프/스크린골프,서울특별시 중구 남창동 남대문로,에너지 회복; 스트레스 해소,37.5614243,126.980168,실내 스포츠/레저
오클랜드골프,실내골프/스크린골프,서울특별시 송파구 삼전동 석촌호수로,에너지 회복; 스트레스 해소,37.5071463,127.0933544,실내 스포츠/레저
역발산골프,실내골프/스크린골프,서울특별시 광진구 화양동 능동로13길,에너지 회복; 스트레스 해소,37.5443871,127.0695053,실내 스포츠/레저
서서울스크린골프,실내골프/스크린골프,서울특별시 강서구 내발산동 우장산로,에너지 회복; 스트레스 해소,37.5544243,126.8408943,실내 스포츠/레저
에딘골프,실내골프/스크린골프,서울특별시 강동구 명일동 구천면로,에너지 회복; 스트레스 해소,37.549148,127.1509946,실내 스포츠/레저
로얄스크린골프,실내골프/스크린골프,서울특별시 송파구 방이동 백제고분로,에너지 회복; 스트레스 해소,37.5133798,127.1141211,실내 스포츠/레저
아차산체육공원아차산배수지축구장,지역축구장,서울특별시 광진구 구의동 천호대로,에너지 회복; 스트레스 해소,37.5488105,127.0931781,경기장/관람시설
현대골프스쿨,실내골프/스크린골프,서울특별시 구로구 개봉동 개봉로20길,에너지 회복; 스트레스 해소,37.4927802,126.8599687,실내 스포츠/레저
월드컵스포랜드,실내골프/스크린골프,서울특별시 마포구 성산동 월드컵로,에너지 회복; 스트레스 해소,37.5664374,126.8963377,실내 스포츠/레저
방배멤피스골프스쿨,실내골프/스크린골프,서울특별시 서초구 방배동 방배로,에너지 회복; 스트레스 해소,37.4783113,126.9997061,실내 스포츠/레저
서경스크린골프,실내골프/스크린골프,서울특별시 종로구 숭인동 종로,에너지 회복; 스트레스 해소,37.5736453,127.0165769,실내 스포츠/레저
매니아당구클럽,당구장,서울특별시 송파구 방이동 올림픽로32길,스트레스 해소; 감정 자극,37.5131686,127.110086,실내 스포츠/레저
탑당구클럽,당구장,서울특별시 송파구 방이동 올림픽로32길,스트레스 해소; 감정 자극,37.5131686,127.110086,실내 스포츠/레저
나인짐휘트니스,헬스/휘트니스,서울특별시 관악구 봉천동 관악로,스트레스 해소; 감정 자극,37.4812588,126.9527443,피트니스/운동시설
스포파크,헬스/휘트니스,서울특별시 금천구 가산동 가산디지털1로,스트레스 해소; 감정 자극,37.4776652,126.8827945,피트니스/운동시설
한울림탁구클럽,탁구장,서울특별시 강북구 미아동 도봉로,에너지 회복; 스트레스 해소,37.6227994,127.0275119,피트니스/운동시설
FC서울홈구장,프로축구장,서울특별시 마포구 성산동 월드컵로,에너지 회복; 스트레스 해소,37.5664374,126.8963377,경기장/관람시설
별당구장,당구장,서울특별시 마포구 상암동 월드컵북로48길,스트레스 해소; 감정 자극,37.5772758,126.895252,실내 스포츠/레저
웰짐휘트니스,헬스/휘트니스,서울특별시 성동구 금호동3가 동호로,스트레스 해소; 감정 자극,37.5490133,127.0154125,피트니스/운동시설
골드당구장,당구장,서울특별시 관악구 봉천동 남부순환로,스트레스 해소; 감정 자극,37.4814856,126.9511662,실내 스포츠/레저
월드컵파크골프장,실외골프연습장,서울특별시 마포구 상암동 하늘공원로,에너지 회복; 스트레스 해소,37.5734326,126.8833088,실외 스포츠/레저
휘트니스존,헬스/휘트니스,서울특별시 송파구 삼전동 삼학사로,스트레스 해소; 감정 자극,37.502821,127.0970135,피트니스/운동시설
아메리카스포츠,헬스/휘트니스,서울특별시 중구 소공동 남대문로7길,스트레스 해소; 감정 자극,37.5637679,126.9816538,피트니스/운동시설
우노짐코리아,지역체육센터,서울특별시 중구 장충동1가 장충단로,에너지 회복; 스트레스 해소,37.5622474,127.0064864,피트니스/운동시설
조이휘트니스,헬스/휘트니스,서울특별시 구로구 구로동 구로중앙로,스트레스 해소; 감정 자극,37.5010998,126.8818877,피트니스/운동시설
렉시짐,헬스/휘트니스,서울특별시 강동구 길동 진황도로,스트레스 해소; 감정 자극,37.5344914,127.1398536,피트니스/운동시설
일자산제1체육관,스포츠센터,서울특별시 강동구 둔촌동 동남로,에너지 회복; 스트레스 해소,37.5323074,127.1499941,피트니스/운동시설
어린이대공원어린이회관눈썰매장,눈썰매장,서울특별시 광진구 능동 광나루로,감정 자극; 스트레스 해소,37.5453803,127.0807122,겨울스포츠
스포맥스,헬스/휘트니스,서울특별시 송파구 가락동 송파대로28길,스트레스 해소; 감정 자극,37.4945055,127.1204267,피트니스/운동시설
K가락휘트니스,헬스/휘트니스,서울특별시 송파구 가락동 송파대로30길,스트레스 해소; 감정 자극,37.4952216,127.1198198,피트니스/운동시설
스포아미휘트니스,헬스/휘트니스,서울특별시 강남구 수서동 광평로,스트레스 해소; 감정 자극,37.4858354,127.0981081,피트니스/운동시설
포레스트휘트니스,헬스/휘트니스,서울특별시 중랑구 망우동 용마산로115길,스트레스 해소; 감정 자극,37.5985991,127.0977219,피트니스/운동시설
아이파크휘트니센터,헬스/휘트니스,서울특별시 강서구 등촌동 등촌로,스트레스 해소; 감정 자극,37.5405641,126.8637367,피트니스/운동시설
제일당구장,당구장,서울특별시 강남구 삼성동 봉은사로,스트레스 해소; 감정 자극,37.5136222,127.0567549,실내 스포츠/레저
이훈의에너지짐,헬스/휘트니스,서울특별시 은평구 대조동 불광로,스트레스 해소; 감정 자극,37.6099941,126.9283912,피트니스/운동시설
대성프라자수영장,일반수영장,서울특별시 성북구 석관동 화랑로,에너지 회복; 안정감,37.6115128,127.0595792,수영/수상스포츠
뉴타운수영장,일반수영장,서울특별시 성동구 용답동 천호대로,에너지 회복; 안정감,37.5718615,127.0440633,수영/수상스포츠
신석수영장,일반수영장,서울특별시 마포구 신수동 대흥로,에너지 회복; 안정감,37.5444223,126.9387921,수영/수상스포츠
반포한강공원반포수상스포츠,수상스포츠,서울특별시 용산구 용산동6가 ,감정 자극; 스트레스 해소,37.52352,126.9858,수영/수상스포츠
잠원수상레저,수상스포츠,서울특별시 서초구 잠원동 잠원로,감정 자극; 스트레스 해소,37.5167989,127.0101286,수영/수상스포츠
상암당구장,당구장,서울특별시 마포구 상암동 월드컵북로44길,스트레스 해소; 감정 자극,37.5766433,126.8950385,실내 스포츠/레저
코끼리당구장,당구장,서울특별시 송파구 방이동 오금로11길,스트레스 해소; 감정 자극,37.5154261,127.1110745,실내 스포츠/레저
보글당구장,당구장,서울특별시 송파구 방이동 올림픽로32길,스트레스 해소; 감정 자극,37.5131686,127.110086,실내 스포츠/레저
우리당구장,당구장,서울특별시 송파구 방이동 올림픽로32길,스트레스 해소; 감정 자극,37.5131686,127.110086,실내 스포츠/레저
아탑골프헬스,헬스/휘트니스,서울특별시 송파구 방이동 오금로11길,스트레스 해소; 감정 자극,37.5154261,127.1110745,피트니스/운동시설
빅볼당구장,당구장,서울특별시 송파구 방이동 오금로11길,스트레스 해소; 감정 자극,37.5154261,127.1110745,실내 스포츠/레저
예준당구클럽,당구장,서울특별시 송파구 방이동 오금로11길,스트레스 해소; 감정 자극,37.5154261,127.1110745,실내 스포츠/레저
휴당구장,당구장,서울특별시 송파구 방이동 올림픽로32길,스트레스 해소; 감정 자극,37.5131686,127.110086,실내 스포츠/레저
마루당구장,당구장,서울특별시 송파구 방이동 올림픽로32길,스트레스 해소; 감정 자극,37.5131686,127.110086,실내 스포츠/레저
황제당구장,당구장,서울특별시 강남구 신사동 강남대로,스트레스 해소; 감정 자극,37.5219895,127.0175715,실내 스포츠/레저
FROMNY,헬스/휘트니스,서울특별시 강남구 신사동 가로수길,스트레스 해소; 감정 자극,37.521084,127.0230203,피트니스/운동시설
JINSDIEHARD,헬스/휘트니스,서울특별시 강남구 신사동 가로수길,스트레스 해소; 감정 자극,37.521084,127.0230203,피트니스/운동시설
드래곤당구장,당구장,서울특별시 강남구 신사동 강남대로152길,스트레스 해소; 감정 자극,37.5187492,127.0241275,실내 스포츠/레저
신의손,당구장,서울특별시 송파구 가락동 중대로9길,스트레스 해소; 감정 자극,37.4983413,127.1192373,실내 스포츠/레저
제우스당구장,당구장,서울특별시 강남구 신사동 강남대로152길,스트레스 해소; 감정 자극,37.5187492,127.0241275,실내 스포츠/레저
대영당구장,당구장,서울특별시 강남구 신사동 도산대로1길,스트레스 해소; 감정 자극,37.5194308,127.019472,실내 스포츠/레저
POOL당구장,당구장,서울특별시 강남구 신사동 압구정로2길,스트레스 해소; 감정 자극,37.5196855,127.0204004,실내 스포츠/레저
학생체육관강서분관,지역실내체육관,서울특별시 양천구 신월동 월정로,에너지 회복; 스트레스 해소,37.532924,126.8363283,피트니스/운동시설
아이휘트니스,헬스/휘트니스,서울특별시 서초구 서초동 서초대로,스트레스 해소; 감정 자극,37.4943665,127.0161747,피트니스/운동시설
CN스포렉스,헬스/휘트니스,서울특별시 서초구 반포동 사평대로,스트레스 해소; 감정 자극,37.5014683,127.0018479,피트니스/운동시설
서울마리나,요트장,서울특별시 영등포구 여의도동 여의서로,스트레스 해소; 감정 자극,37.5336861,126.9132665,실외 스포츠/레저
트라움앤24,헬스/휘트니스,서울특별시 강남구 역삼동 테헤란로,스트레스 해소; 감정 자극,37.5034432,127.0458432,피트니스/운동시설
티샷골프연습장,실외골프연습장,서울특별시 강서구 등촌동 등촌로,에너지 회복; 스트레스 해소,37.5405641,126.8637367,실외 스포츠/레저
광진구배드민턴전용체육관,지역체육센터,서울특별시 광진구 광장동 천호대로140길,에너지 회복; 스트레스 해소,37.5444482,127.100461,피트니스/운동시설
모비딕스크린골프,실내골프/스크린골프,서울특별시 강남구 역삼동 테헤란로,에너지 회복; 스트레스 해소,37.5034432,127.0458432,실내 스포츠/레저
B앤B휘트니스,헬스/휘트니스,서울특별시 강남구 논현동 학동로,스트레스 해소; 감정 자극,37.5120112,127.0241112,피트니스/운동시설
태종스크린골프,실내골프/스크린골프,서울특별시 성동구 마장동 마장로,에너지 회복; 스트레스 해소,37.5660242,127.037052,실내 스포츠/레저
이글스크린골프,실내골프/스크린골프,서울특별시 구로구 신도림동 구로중앙로,에너지 회복; 스트레스 해소,37.5042759,126.8782905,실내 스포츠/레저
더블휘트니스클럽,헬스/휘트니스,서울특별시 강북구 수유동 인수봉로,스트레스 해소; 감정 자극,37.6345746,127.0133352,피트니스/운동시설
코리아짐휘트니스,헬스/휘트니스,서울특별시 성북구 동선동1가 보문로34길,스트레스 해소; 감정 자극,37.5909355,127.0191774,피트니스/운동시설
레드휘트니스,헬스/휘트니스,서울특별시 은평구 갈현동 서오릉로,스트레스 해소; 감정 자극,37.6166188,126.9071802,피트니스/운동시설
맥스휘트니스센터,헬스/휘트니스,서울특별시 종로구 신영동 진흥로,스트레스 해소; 감정 자극,37.6038216,126.9615237,피트니스/운동시설
68골프클럽,실내골프/스크린골프,서울특별시 송파구 마천동 마천로,에너지 회복; 스트레스 해소,37.5005892,127.1434876,실내 스포츠/레저
골프존,실내골프/스크린골프,서울특별시 강북구 미아동 도봉로,에너지 회복; 스트레스 해소,37.6227994,127.0275119,실내 스포츠/레저
강산골프,실내골프/스크린골프,서울특별시 은평구 구산동 서오릉로,에너지 회복; 스트레스 해소,37.6129309,126.9137875,실내 스포츠/레저
M2골프앤헬스크럽,실내골프/스크린골프,서울특별시 강남구 논현동 논현로,에너지 회복; 스트레스 해소,37.5181326,127.0287585,실내 스포츠/레저
파72스크린골프,실내골프/스크린골프,서울특별시 강동구 성내동 강동대로,에너지 회복; 스트레스 해소,37.5269944,127.1215874,실내 스포츠/레저
HK골프,실내골프/스크린골프,서울특별시 노원구 중계동 중계로,에너지 회복; 스트레스 해소,37.6413977,127.0832957,실내 스포츠/레저
저스트골프,실내골프/스크린골프,서울특별시 서초구 서초동 서초대로64길,에너지 회복; 스트레스 해소,37.4920147,127.0218635,실내 스포츠/레저
국제골프스쿨,실내골프/스크린골프,서울특별시 서초구 서초동 효령로60길,에너지 회복; 스트레스 해소,37.4846446,127.018672,실내 스포츠/레저
희망스크린골프존,실내골프/스크린골프,서울특별시 관악구 봉천동 남부순환로,에너지 회복; 스트레스 해소,37.4814856,126.9511662,실내 스포츠/레저
백호스크린골프,실내골프/스크린골프,서울특별시 강동구 길동 천중로40길,에너지 회복; 스트레스 해소,37.539284,127.1382835,실내 스포츠/레저
성광골프연습장,실내골프/스크린골프,서울특별시 구로구 신도림동 신도림로19길,에너지 회복; 스트레스 해소,37.5119938,126.8824423,실내 스포츠/레저
에이스골프,실내골프/스크린골프,서울특별시 강남구 역삼동 논현로,에너지 회복; 스트레스 해소,37.498287,127.0381392,실내 스포츠/레저
성대볼링센터,볼링장,서울특별시 동작구 상도동 상도로,스트레스 해소; 감정 자극,37.5030223,126.9360156,실내 스포츠/레저
두산골프아카데미,실내골프/스크린골프,서울특별시 관악구 봉천동 봉천로,에너지 회복; 스트레스 해소,37.4826787,126.9495443,실내 스포츠/레저
한일골프스쿨,실내골프/스크린골프,서울특별시 강북구 수유동 삼양로,에너지 회복; 스트레스 해소,37.6353867,127.0170277,실내 스포츠/레저
오렌지휘트니스,헬스/휘트니스,서울특별시 구로구 고척동 경인로,스트레스 해소; 감정 자극,37.4975857,126.8637132,피트니스/운동시설
SM스크린골프,실내골프/스크린골프,서울특별시 강남구 일원동 일원로,에너지 회복; 스트레스 해소,37.4877698,127.0822928,실내 스포츠/레저
매니아,당구장,서울특별시 송파구 석촌동 삼학사로12길,스트레스 해소; 감정 자극,37.5015567,127.0978406,실내 스포츠/레저
삼손헬스크럽,헬스/휘트니스,서울특별시 송파구 삼전동 백제고분로,스트레스 해소; 감정 자극,37.5025616,127.0991797,피트니스/운동시설
올림픽헬스,헬스/휘트니스,서울특별시 강동구 성내동 강동대로,스트레스 해소; 감정 자극,37.5269944,127.1215874,피트니스/운동시설
필당구장,당구장,서울특별시 송파구 석촌동 가락로,스트레스 해소; 감정 자극,37.5005742,127.1070344,실내 스포츠/레저
경희휘트니스클럽,헬스/휘트니스,서울특별시 송파구 송파동 가락로,스트레스 해소; 감정 자극,37.504081,127.1141497,피트니스/운동시설
르네상스당구클럽,당구장,서울특별시 송파구 가락동 중대로9길,스트레스 해소; 감정 자극,37.4983413,127.1192373,실내 스포츠/레저
BMW당구클럽,당구장,서울특별시 송파구 가락동 중대로9길,스트레스 해소; 감정 자극,37.4983413,127.1192373,실내 스포츠/레저
태산당구클럽,당구장,서울특별시 송파구 가락동 송이로20길,스트레스 해소; 감정 자극,37.4959522,127.1203472,실내 스포츠/레저
아트,당구장,서울특별시 송파구 오금동 마천로15길,스트레스 해소; 감정 자극,37.5054963,127.1350002,실내 스포츠/레저
현대남여헬스,헬스/휘트니스,서울특별시 송파구 오금동 동남로,스트레스 해소; 감정 자극,37.5056449,127.1391853,피트니스/운동시설
퀸스크린골프,실내골프/스크린골프,서울특별시 송파구 오금동 마천로,에너지 회복; 스트레스 해소,37.5073421,127.1289918,실내 스포츠/레저
커브스,헬스/휘트니스,서울특별시 송파구 오금동 마천로,스트레스 해소; 감정 자극,37.5073421,127.1289918,피트니스/운동시설
한솔골프,실내골프/스크린골프,서울특별시 강남구 일원동 광평로10길,에너지 회복; 스트레스 해소,37.481006,127.0817113,실내 스포츠/레저
삼원휘트니스,헬스/휘트니스,서울특별시 용산구 이태원동 회나무로26길,스트레스 해소; 감정 자극,37.5391946,126.9907369,피트니스/운동시설
런던클럽,당구장,서울특별시 강동구 천호동 올림픽로,스트레스 해소; 감정 자극,37.549006,127.1271375,실내 스포츠/레저
청풍무관,지역실내체육관,서울특별시 강동구 천호동 상암로,에너지 회복; 스트레스 해소,37.5475395,127.1321945,피트니스/운동시설
해동검도,지역실내체육관,서울특별시 강동구 천호동 구천면로,에너지 회복; 스트레스 해소,37.5429218,127.1192777,피트니스/운동시설
동포권투체육관,지역실내체육관,서울특별시 강동구 천호동 올림픽로,에너지 회복; 스트레스 해소,37.549006,127.1271375,피트니스/운동시설
CURVES,헬스/휘트니스,서울특별시 강동구 암사동 올림픽로,스트레스 해소; 감정 자극,37.5585235,127.1306295,피트니스/운동시설
당구매니아,당구장,서울특별시 강동구 명일동 구천면로,스트레스 해소; 감정 자극,37.549148,127.1509946,실내 스포츠/레저
명일휘트니스,헬스/휘트니스,서울특별시 강동구 명일동 구천면로,스트레스 해소; 감정 자극,37.549148,127.1509946,피트니스/운동시설
러쉬스포츠센터,헬스/휘트니스,서울특별시 서초구 양재동 마방로10길,스트레스 해소; 감정 자극,37.4749998,127.0444973,피트니스/운동시설
희망당구장,당구장,서울특별시 중구 서소문동 서소문로,스트레스 해소; 감정 자극,37.5622459,126.9702654,실내 스포츠/레저
동양볼링장,볼링장,서울특별시 영등포구 문래동5가 선유로,스트레스 해소; 감정 자극,37.5194314,126.8893618,실내 스포츠/레저
럭셔리스크린골프,실내골프/스크린골프,서울특별시 강남구 청담동 도산대로,에너지 회복; 스트레스 해소,37.5244899,127.0502131,실내 스포츠/레저
서림당구장,당구장,서울특별시 영등포구 당산동3가 당산로,스트레스 해소; 감정 자극,37.5225075,126.8959049,실내 스포츠/레저
CPS당구장,당구장,서울특별시 강남구 신사동 언주로172길,스트레스 해소; 감정 자극,37.5272393,127.0367434,실내 스포츠/레저
합기도검무관,지역실내체육관,서울특별시 서대문구 홍은동 ,에너지 회복; 스트레스 해소,37.5933933,126.9375964,피트니스/운동시설
북아현체육관,지역실내체육관,서울특별시 서대문구 북아현동 북아현로,에너지 회복; 스트레스 해소,37.563293,126.9547724,피트니스/운동시설
파맥스스포츠,스포츠센터,서울특별시 서초구 방배동 방배로,에너지 회복; 스트레스 해소,37.4783113,126.9997061,피트니스/운동시설
종로당구장,당구장,서울특별시 종로구 종로5가 종로,스트레스 해소; 감정 자극,37.5714092,127.0078154,실내 스포츠/레저
에버레저,요트장,서울특별시 광진구 광장동 아차산로,스트레스 해소; 감정 자극,37.547414,127.1064441,실외 스포츠/레저
스포짐,헬스/휘트니스,서울특별시 은평구 역촌동 진흥로1길,스트레스 해소; 감정 자극,37.603298,126.919439,피트니스/운동시설
큐당구장,당구장,서울특별시 성동구 성수동2가 연무장길,스트레스 해소; 감정 자극,37.5411759,127.0595267,실내 스포츠/레저
캥거루당구장,당구장,서울특별시 성동구 송정동 동일로,스트레스 해소; 감정 자극,37.5516914,127.0687294,실내 스포츠/레저
광무체육관,지역실내체육관,서울특별시 동작구 노량진동 장승배기로,에너지 회복; 스트레스 해소,37.5093471,126.9401389,피트니스/운동시설
특실당구장,당구장,서울특별시 동대문구 휘경동 망우로,스트레스 해소; 감정 자극,37.5899957,127.0624325,실내 스포츠/레저
벤츠스크린골프,실내골프/스크린골프,서울특별시 송파구 오금동 문정로,에너지 회복; 스트레스 해소,37.4992673,127.1408258,실내 스포츠/레저
SK스크린골프,실내골프/스크린골프,서울특별시 영등포구 문래동3가 문래로,에너지 회복; 스트레스 해소,37.518627,126.8989195,실내 스포츠/레저
국일관당구클럽,당구장,서울특별시 종로구 관수동 수표로,스트레스 해소; 감정 자극,37.5692537,126.9890922,실내 스포츠/레저
문용당구장,당구장,서울특별시 송파구 방이동 올림픽로32길,스트레스 해소; 감정 자극,37.5131686,127.110086,실내 스포츠/레저
코오롱당구장,당구장,서울특별시 영등포구 당산동1가 영등포로28길,스트레스 해소; 감정 자극,37.5197933,126.8986516,실내 스포츠/레저
그린테니스,테니스장,서울특별시 서초구 내곡동 ,에너지 회복; 스트레스 해소,37.4534615,127.0664442,피트니스/운동시설
서울볼링장,볼링장,서울특별시 성북구 석관동 화랑로,스트레스 해소; 감정 자극,37.6115128,127.0595792,실내 스포츠/레저
대성스포츠센타,헬스/휘트니스,서울특별시 성북구 석관동 화랑로,스트레스 해소; 감정 자극,37.6115128,127.0595792,피트니스/운동시설
트윈당구장,당구장,서울특별시 서초구 양재동 마방로10길,스트레스 해소; 감정 자극,37.4749998,127.0444973,실내 스포츠/레저
하나탁구센터,탁구장,서울특별시 송파구 거여동 거마로,에너지 회복; 스트레스 해소,37.497157,127.1463034,피트니스/운동시설
세븐당구클럽,당구장,서울특별시 광진구 군자동 동일로60길,스트레스 해소; 감정 자극,37.5580647,127.0750569,실내 스포츠/레저
서울당구장,당구장,서울특별시 동대문구 답십리동 황물로,스트레스 해소; 감정 자극,37.5720187,127.048347,실내 스포츠/레저
티엔디당구장,당구장,서울특별시 종로구 관철동 삼일대로,스트레스 해소; 감정 자극,37.5711546,126.987675,실내 스포츠/레저
현대당구장,당구장,서울특별시 동대문구 장안동 한천로24길,스트레스 해소; 감정 자극,37.570419,127.0669539,실내 스포츠/레저
양헬스클럽,헬스/휘트니스,서울특별시 영등포구 영등포동6가 영등포로35길,스트레스 해소; 감정 자극,37.5216798,126.9043896,피트니스/운동시설
호산스크린골프,실내골프/스크린골프,서울특별시 은평구 증산동 증산로,에너지 회복; 스트레스 해소,37.5796258,126.9050122,실내 스포츠/레저
한남볼링센터,볼링장,서울특별시 용산구 한남동 한남대로,스트레스 해소; 감정 자극,37.5310578,127.0095218,실내 스포츠/레저
서광,실내골프/스크린골프,서울특별시 마포구 신수동 광성로,에너지 회복; 스트레스 해소,37.5507901,126.9331888,실내 스포츠/레저
극동휘트니스,헬스/휘트니스,서울특별시 서대문구 현저동 독립문공원길,스트레스 해소; 감정 자극,37.5725739,126.957074,피트니스/운동시설
신림스포츠,스포츠센터,서울특별시 관악구 신림동 신림로,에너지 회복; 스트레스 해소,37.4739083,126.9335176,피트니스/운동시설
은평당구장,당구장,서울특별시 은평구 응암동 응암로,스트레스 해소; 감정 자극,37.5972585,126.9200398,실내 스포츠/레저
한남2동헬스장,헬스/휘트니스,서울특별시 용산구 한남동 대사관로5길,스트레스 해소; 감정 자극,37.5350647,127.0005936,피트니스/운동시설
무교스크린,실내골프/스크린골프,서울특별시 중구 다동 다동길,에너지 회복; 스트레스 해소,37.5677929,126.9809886,실내 스포츠/레저
레츠키즈,지역실내체육관,서울특별시 성북구 길음동 동소문로,에너지 회복; 스트레스 해소,37.6031858,127.0236174,피트니스/운동시설
스퀘어짐,헬스/휘트니스,서울특별시 종로구 숭인동 숭인동길,스트레스 해소; 감정 자극,37.5783171,127.0221981,피트니스/운동시설
디엠시스크린골프,실내골프/스크린골프,서울특별시 마포구 상암동 월드컵북로,에너지 회복; 스트레스 해소,37.5825783,126.8832349,실내 스포츠/레저
명인당구장,당구장,서울특별시 종로구 계동 계동길,스트레스 해소; 감정 자극,37.5773923,126.986818,실내 스포츠/레저
포이스크린골프,실내골프/스크린골프,서울특별시 강남구 개포동 개포로,에너지 회복; 스트레스 해소,37.489715,127.0695778,실내 스포츠/레저
시흥당구장,당구장,서울특별시 금천구 시흥동 금하로,스트레스 해소; 감정 자극,37.4516854,126.9073247,실내 스포츠/레저
금강당구장,당구장,서울특별시 용산구 한강로1가 한강대로62길,스트레스 해소; 감정 자극,37.5325733,126.9738428,실내 스포츠/레저
주노휘트니스,헬스/휘트니스,서울특별시 송파구 석촌동 송파대로37길,스트레스 해소; 감정 자극,37.5008133,127.1105678,피트니스/운동시설
대성당구장,당구장,서울특별시 송파구 석촌동 송파대로37길,스트레스 해소; 감정 자극,37.5008133,127.1105678,실내 스포츠/레저
푸른헬스피아,헬스/휘트니스,서울특별시 구로구 구로동 가마산로,스트레스 해소; 감정 자극,37.488503,126.8810697,피트니스/운동시설
라인헬스아카데미,헬스/휘트니스,서울특별시 중랑구 면목동 용마산로,스트레스 해소; 감정 자극,37.587697,127.095871,피트니스/운동시설
한양헬스클럽,헬스/휘트니스,서울특별시 성동구 행당동 왕십리로,스트레스 해소; 감정 자극,37.5590431,127.0378622,피트니스/운동시설
황학정,궁도장,서울특별시 종로구 사직동 사직로9길,안정감; 사회적 연결,37.5761741,126.966555,실외 스포츠/레저
공항동문화체육센터,일반수영장,서울특별시 강서구 공항동 송정로,에너지 회복; 안정감,37.5581086,126.811091,수영/수상스포츠
동대문탁구클럽,탁구장,서울특별시 동대문구 이문동 이문로,에너지 회복; 스트레스 해소,37.5942839,127.0595394,피트니스/운동시설
한미당구장,당구장,서울특별시 광진구 중곡동 긴고랑로,스트레스 해소; 감정 자극,37.5586572,127.0914059,실내 스포츠/레저
위너스파크,실내골프/스크린골프,서울특별시 성동구 행당동 왕십리광장로,에너지 회복; 스트레스 해소,37.5588568,127.0387162,실내 스포츠/레저
복당구장,당구장,서울특별시 종로구 신문로2가 새문안로,스트레스 해소; 감정 자극,37.5700017,126.972033,실내 스포츠/레저
동영휘트니스클럽,헬스/휘트니스,서울특별시 강남구 역삼동 언주로,스트레스 해소; 감정 자극,37.4963919,127.0458068,피트니스/운동시설
에이샵스크린골프,실내골프/스크린골프,서울특별시 관악구 신림동 남부순환로,에너지 회복; 스트레스 해소,37.4842956,126.9298124,실내 스포츠/레저
JS골프,실내골프/스크린골프,서울특별시 구로구 고척동 경인로,에너지 회복; 스트레스 해소,37.4975857,126.8637132,실내 스포츠/레저
도토리짐휘트니스센터,헬스/휘트니스,서울특별시 강남구 논현동 논현로,스트레스 해소; 감정 자극,37.5154155,127.0300294,피트니스/운동시설
용문체육관,지역실내체육관,서울특별시 성북구 안암동2가 고려대로11길,에너지 회복; 스트레스 해소,37.588005,127.0214041,피트니스/운동시설
이글스포츠센터,스포츠센터,서울특별시 서대문구 연희동 성산로17길,에너지 회복; 스트레스 해소,37.5634924,126.9323208,피트니스/운동시설
파스칼스크린,실내골프/스크린골프,서울특별시 강북구 번동 덕릉로,에너지 회복; 스트레스 해소,37.6345965,127.0306856,실내 스포츠/레저
골프프린스스크린골프장,실내골프/스크린골프,서울특별시 송파구 송파동 백제고분로,에너지 회복; 스트레스 해소,37.505458,127.1074538,실내 스포츠/레저
서원골프스쿨,실내골프/스크린골프,서울특별시 도봉구 도봉동 도봉로181길,에너지 회복; 스트레스 해소,37.6852705,127.0420484,실내 스포츠/레저
삼원당구장,당구장,서울특별시 영등포구 당산동6가 양평로,스트레스 해소; 감정 자극,37.5388277,126.8911509,실내 스포츠/레저
샤인스크린골프,실내골프/스크린골프,서울특별시 구로구 오류동 경인로,에너지 회복; 스트레스 해소,37.4911523,126.8298122,실내 스포츠/레저
허리우드당구장,당구장,서울특별시 강남구 도곡동 도곡로,스트레스 해소; 감정 자극,37.4932782,127.0437644,실내 스포츠/레저
팔팔당구장,당구장,서울특별시 은평구 수색동 수색로16길,스트레스 해소; 감정 자극,37.5826791,126.8954587,실내 스포츠/레저
공원스크린골프,실내골프/스크린골프,서울특별시 영등포구 당산동3가 양산로19길,에너지 회복; 스트레스 해소,37.5254965,126.8950827,실내 스포츠/레저
구슬모아당구장,당구장,서울특별시 용산구 원효로2가 원효로48길,스트레스 해소; 감정 자극,37.5342239,126.9609991,실내 스포츠/레저
고려체육관,지역실내체육관,서울특별시 은평구 대조동 연서로18가길,에너지 회복; 스트레스 해소,37.6128233,126.9201748,피트니스/운동시설
전망대당구장,당구장,서울특별시 관악구 신림동 남부순환로,스트레스 해소; 감정 자극,37.4842956,126.9298124,실내 스포츠/레저
삼거리당구장,당구장,서울특별시 중구 황학동 퇴계로,스트레스 해소; 감정 자극,37.5656688,127.0220058,실내 스포츠/레저
블루휘트니스,헬스/휘트니스,서울특별시 관악구 봉천동 봉천로,스트레스 해소; 감정 자극,37.4826787,126.9495443,피트니스/운동시설
우정당구장,당구장,서울특별시 성동구 행당동 왕십리로21길,스트레스 해소; 감정 자극,37.5598419,127.0317946,실내 스포츠/레저
하호휘트니스클럽,헬스/휘트니스,서울특별시 강동구 길동 양재대로124길,스트레스 해소; 감정 자극,37.5417635,127.1462036,피트니스/운동시설
대학당구장,당구장,서울특별시 광진구 화양동 아차산로33길,스트레스 해소; 감정 자극,37.5418094,127.0705534,실내 스포츠/레저
합기도범무관중앙본관,지역실내체육관,서울특별시 성북구 동소문동7가 아리랑로,에너지 회복; 스트레스 해소,37.5976707,127.0149212,피트니스/운동시설
그린힐스크린골프,실내골프/스크린골프,서울특별시 금천구 독산동 시흥대로,에너지 회복; 스트레스 해소,37.4684383,126.8980548,실내 스포츠/레저
커브스봉천클럽,헬스/휘트니스,서울특별시 관악구 봉천동 양녕로,스트레스 해소; 감정 자극,37.485759,126.946929,피트니스/운동시설
연당구장,당구장,서울특별시 강남구 신사동 논현로167길,스트레스 해소; 감정 자극,37.5246297,127.0272139,실내 스포츠/레저
서경석골프존,실내골프/스크린골프,서울특별시 마포구 용강동 대흥로4길,에너지 회복; 스트레스 해소,37.5416103,126.9391829,실내 스포츠/레저
아시아나스크린골프,실내골프/스크린골프,서울특별시 영등포구 대림동 대림로,에너지 회복; 스트레스 해소,37.5019187,126.8968464,실내 스포츠/레저
미주스포츠센터,스포츠센터,서울특별시 영등포구 문래동6가 선유로,에너지 회복; 스트레스 해소,37.5194314,126.8893618,피트니스/운동시설
명보헬스피아,헬스/휘트니스,서울특별시 중구 인현동1가 마른내로,스트레스 해소; 감정 자극,37.5646848,126.9948704,피트니스/운동시설
세종탁구장,탁구장,서울특별시 마포구 도화동 삼개로5길,에너지 회복; 스트레스 해소,37.537995,126.9481947,피트니스/운동시설
청룡탁구장,탁구장,서울특별시 종로구 종로2가 종로,에너지 회복; 스트레스 해소,37.5701732,126.987742,피트니스/운동시설
엠애슬레틱스퀘어,헬스/휘트니스,서울특별시 강남구 청담동 선릉로,스트레스 해소; 감정 자극,37.52011,127.0402188,피트니스/운동시설
에덴에있는휘트니스클럽,헬스/휘트니스,서울특별시 성동구 행당동 고산자로,스트레스 해소; 감정 자극,37.5644806,127.0363214,피트니스/운동시설
대한당구장,당구장,서울특별시 중구 충무로4가 퇴계로,스트레스 해소; 감정 자극,37.5615873,126.9953997,실내 스포츠/레저
아세아당구장,당구장,서울특별시 성북구 석관동 돌곶이로,스트레스 해소; 감정 자극,37.6091994,127.0582505,실내 스포츠/레저
에센휘트니스클럽,헬스/휘트니스,서울특별시 동대문구 장안동 장안벚꽃로,스트레스 해소; 감정 자극,37.5692171,127.0757114,피트니스/운동시설
아센휘트니스헬스클럽,헬스/휘트니스,서울특별시 성동구 금호동4가 독서당로,스트레스 해소; 감정 자극,37.5467243,127.0190748,피트니스/운동시설
한숲볼링센터,볼링장,서울특별시 동작구 대방동 여의대방로,스트레스 해소; 감정 자극,37.5116938,126.925089,실내 스포츠/레저
해인당구장,당구장,서울특별시 중구 수하동 남대문로10길,스트레스 해소; 감정 자극,37.567527,126.9841973,실내 스포츠/레저
중구회현체육센터,지역실내체육관,서울특별시 중구 회현동1가 퇴계로12길,에너지 회복; 스트레스 해소,37.5580178,126.9822453,피트니스/운동시설
동호인테니스협회,테니스장,서울특별시 동대문구 휘경동 망우로,에너지 회복; 스트레스 해소,37.5899957,127.0624325,피트니스/운동시설
동아리당구장,당구장,서울특별시 성동구 사근동 사근동길,스트레스 해소; 감정 자극,37.5602757,127.0426082,실내 스포츠/레저
최박사테니스장,테니스장,서울특별시 용산구 한남동 다산로,에너지 회복; 스트레스 해소,37.5475261,127.0041144,피트니스/운동시설
미화볼링장,볼링장,서울특별시 도봉구 창동 도봉로,스트레스 해소; 감정 자극,37.6489234,127.0350005,실내 스포츠/레저
필스크린골프,실내골프/스크린골프,서울특별시 송파구 송파동 가락로,에너지 회복; 스트레스 해소,37.504081,127.1141497,실내 스포츠/레저
태양당구장,당구장,서울특별시 용산구 이태원동 회나무로,스트레스 해소; 감정 자극,37.5403783,126.9944187,실내 스포츠/레저
파워짐휘트니스,헬스/휘트니스,서울특별시 강서구 내발산동 강서로,스트레스 해소; 감정 자극,37.5507788,126.8363291,피트니스/운동시설
짐80스포츠센터,헬스/휘트니스,서울특별시 강동구 암사동 올림픽로,스트레스 해소; 감정 자극,37.5553123,127.1294202,피트니스/운동시설
진24당구장,당구장,서울특별시 강남구 대치동 역삼로,스트레스 해소; 감정 자극,37.5037829,127.0595421,실내 스포츠/레저
두바이당구장,당구장,서울특별시 서초구 잠원동 나루터로,스트레스 해소; 감정 자극,37.5161333,127.0120671,실내 스포츠/레저
명당구장,당구장,서울특별시 중구 황학동 퇴계로87길,스트레스 해소; 감정 자극,37.566436,127.0211336,실내 스포츠/레저
유성스포츠센터,스포츠센터,서울특별시 강남구 신사동 압구정로,에너지 회복; 스트레스 해소,37.5283635,127.0383787,피트니스/운동시설
모닝당구장,당구장,서울특별시 강남구 논현동 논현로,스트레스 해소; 감정 자극,37.5154155,127.0300294,실내 스포츠/레저
동원당구장,당구장,서울특별시 중랑구 면목동 면목로,스트레스 해소; 감정 자극,37.5816841,127.0886238,실내 스포츠/레저
바른체형운동센터,헬스/휘트니스,서울특별시 강남구 압구정동 압구정로29길,스트레스 해소; 감정 자극,37.5298229,127.0278284,피트니스/운동시설
비제이휘트니스센터,헬스/휘트니스,서울특별시 영등포구 여의도동 은행로,스트레스 해소; 감정 자극,37.5283127,126.9215588,피트니스/운동시설
비발디휘트니스,헬스/휘트니스,서울특별시 강북구 미아동 도봉로,스트레스 해소; 감정 자극,37.6308331,127.024486,피트니스/운동시설
제일골프스쿨,실내골프/스크린골프,서울특별시 종로구 내수동 사직로8길,에너지 회복; 스트레스 해소,37.574107,126.9724134,실내 스포츠/레저
한신탁구교실,탁구장,서울특별시 서초구 반포동 신반포로,에너지 회복; 스트레스 해소,37.5044399,126.9996177,피트니스/운동시설
개선문당구장,당구장,서울특별시 종로구 관철동 삼일대로19길,스트레스 해소; 감정 자극,37.5695674,126.9866905,실내 스포츠/레저
황금볼당구장,당구장,서울특별시 구로구 궁동 부일로15길,스트레스 해소; 감정 자극,37.4946574,126.8329128,실내 스포츠/레저
제주당구장,당구장,서울특별시 동대문구 전농동 서울시립대로,스트레스 해소; 감정 자극,37.5757778,127.0473586,실내 스포츠/레저
월드당구장,당구장,서울특별시 강서구 화곡동 화곡로,스트레스 해소; 감정 자극,37.5414074,126.8415864,실내 스포츠/레저
맹호체육관,지역실내체육관,서울특별시 영등포구 양평동1가 영등포로13길,에너지 회복; 스트레스 해소,37.5237769,126.889201,피트니스/운동시설
댁크,당구장,서울특별시 마포구 동교동 홍익로6길,스트레스 해소; 감정 자극,37.5570244,126.9251895,실내 스포츠/레저
크로바볼링장,볼링장,서울특별시 금천구 독산동 시흥대로,스트레스 해소; 감정 자극,37.4684383,126.8980548,실내 스포츠/레저
장안탁구클럽,탁구장,서울특별시 동대문구 장안동 ,에너지 회복; 스트레스 해소,37.57105,127.06806,피트니스/운동시설
산업은행,테니스장,서울특별시 성북구 안암동4가 안암로7길,에너지 회복; 스트레스 해소,37.5802229,127.024568,피트니스/운동시설
이조은스크린골프존,실내골프/스크린골프,서울특별시 양천구 신월동 화곡로,에너지 회복; 스트레스 해소,37.5395238,126.8276036,실내 스포츠/레저
노화자탁구교실,탁구장,서울특별시 서초구 양재동 동산로,에너지 회복; 스트레스 해소,37.469484,127.0411734,피트니스/운동시설
원당구장,당구장,서울특별시 송파구 마천동 마천로45길,스트레스 해소; 감정 자극,37.4983562,127.1510792,실내 스포츠/레저
그랑프리골프존,실내골프/스크린골프,서울특별시 노원구 상계동 수락산로,에너지 회복; 스트레스 해소,37.6651826,127.072442,실내 스포츠/레저
성원상떼휘트니스,헬스/휘트니스,서울특별시 성동구 옥수동 독서당로,스트레스 해소; 감정 자극,37.5420231,127.0116166,피트니스/운동시설
포커스당구장서비스,당구장,서울특별시 강동구 고덕동 고덕로,스트레스 해소; 감정 자극,37.556037,127.1455687,실내 스포츠/레저
안암탁구클럽,탁구장,서울특별시 성북구 안암동5가 고려대로24길,에너지 회복; 스트레스 해소,37.5844918,127.0294459,피트니스/운동시설
에이스당구장,당구장,서울특별시 강남구 개포동 선릉로6길,스트레스 해소; 감정 자극,37.4829974,127.0621169,실내 스포츠/레저
지엠골프,실내골프/스크린골프,서울특별시 광진구 자양동 뚝섬로33길,에너지 회복; 스트레스 해소,37.5361174,127.0698389,실내 스포츠/레저
봉이휘트니스클럽,헬스/휘트니스,서울특별시 성북구 종암동 종암로,스트레스 해소; 감정 자극,37.599462,127.0342569,피트니스/운동시설
중앙당구장,당구장,서울특별시 중구 명동2가 남대문로,스트레스 해소; 감정 자극,37.5620071,126.9819568,실내 스포츠/레저
킹당구장,당구장,서울특별시 중랑구 면목동 용마산로,스트레스 해소; 감정 자극,37.587697,127.095871,실내 스포츠/레저
아트스크린골프,실내골프/스크린골프,서울특별시 마포구 성산동 월드컵로,에너지 회복; 스트레스 해소,37.565398,126.9014552,실내 스포츠/레저
서교당구장,당구장,서울특별시 마포구 서교동 와우산로,스트레스 해소; 감정 자극,37.5564843,126.9309958,실내 스포츠/레저
리더스스크린골프,실내골프/스크린골프,서울특별시 금천구 가산동 벚꽃로,에너지 회복; 스트레스 해소,37.4811345,126.8832068,실내 스포츠/레저
공공탁구장,탁구장,서울특별시 양천구 목동 목동중앙로,에너지 회복; 스트레스 해소,37.5357127,126.8704635,피트니스/운동시설
이글스크린,실내골프/스크린골프,서울특별시 서초구 방배동 효령로,에너지 회복; 스트레스 해소,37.4821306,127.0015505,실내 스포츠/레저
중부골프헬스클럽,실내골프/스크린골프,서울특별시 중구 오장동 동호로33길,에너지 회복; 스트레스 해소,37.5654058,127.0006531,실내 스포츠/레저
현대레포츠스쿨,스포츠센터,서울특별시 도봉구 방학동 도당로,에너지 회복; 스트레스 해소,37.666259,127.0380315,피트니스/운동시설
굿샷스크린골프,실내골프/스크린골프,서울특별시 영등포구 대림동 대림로,에너지 회복; 스트레스 해소,37.5019187,126.8968464,실내 스포츠/레저
아이엠지스포츠센터,지역체육센터,서울특별시 구로구 구로동 경인로,에너지 회복; 스트레스 해소,37.5003017,126.8758793,피트니스/운동시설
스피드,당구장,서울특별시 서초구 방배동 방배로,스트레스 해소; 감정 자극,37.4783113,126.9997061,실내 스포츠/레저
서울시티클럽휘트니스,헬스/휘트니스,서울특별시 영등포구 여의도동 여의공원로,스트레스 해소; 감정 자극,37.5286422,126.924813,피트니스/운동시설
드림헬스,헬스/휘트니스,서울특별시 중랑구 묵동 공릉로2길,스트레스 해소; 감정 자극,37.6121011,127.0796016,피트니스/운동시설
공때리네,당구장,서울특별시 금천구 가산동 범안로,스트레스 해소; 감정 자극,37.4656449,126.8881632,실내 스포츠/레저
뉴청룡볼링장,볼링장,서울특별시 용산구 갈월동 한강대로,스트레스 해소; 감정 자극,37.5446302,126.9719792,실내 스포츠/레저
영춘권수련원,지역실내체육관,서울특별시 마포구 서교동 동교로,에너지 회복; 스트레스 해소,37.5596547,126.9240477,피트니스/운동시설
챔프당구장,당구장,서울특별시 성동구 마장동 마장로29길,스트레스 해소; 감정 자극,37.5688544,127.0365448,실내 스포츠/레저
아카데미당구장,당구장,서울특별시 종로구 낙원동 수표로,스트레스 해소; 감정 자극,37.5715103,126.989201,실내 스포츠/레저
한성당구장,당구장,서울특별시 중구 흥인동 퇴계로81길,스트레스 해소; 감정 자극,37.5677014,127.0175989,실내 스포츠/레저
헬스존,헬스/휘트니스,서울특별시 마포구 공덕동 만리재로,스트레스 해소; 감정 자극,37.5473549,126.9581789,피트니스/운동시설
예일당구장,당구장,서울특별시 동대문구 장안동 천호대로77길,스트레스 해소; 감정 자극,37.5647283,127.0625429,실내 스포츠/레저
휘트니스링크,헬스/휘트니스,서울특별시 동대문구 전농동 사가정로,스트레스 해소; 감정 자극,37.5747671,127.0536195,피트니스/운동시설
아이짐헬스,헬스/휘트니스,서울특별시 서초구 서초동 효령로,스트레스 해소; 감정 자극,37.4845119,127.0174076,피트니스/운동시설
제이골프스쿨,실내골프/스크린골프,서울특별시 광진구 구의동 광나루로,에너지 회복; 스트레스 해소,37.5455283,127.0863484,실내 스포츠/레저
멀티짐휘트니스코리아,헬스/휘트니스,서울특별시 서대문구 대현동 신촌역로,스트레스 해소; 감정 자극,37.5584469,126.9425086,피트니스/운동시설
동아볼링센터,볼링장,서울특별시 종로구 숭인동 종로,스트레스 해소; 감정 자극,37.5736453,127.0165769,실내 스포츠/레저
한일당구장,당구장,서울특별시 종로구 인의동 종로,스트레스 해소; 감정 자극,37.5706049,126.994587,실내 스포츠/레저
로터리당구장,당구장,서울특별시 동대문구 이문동 이문로,스트레스 해소; 감정 자극,37.5942839,127.0595394,실내 스포츠/레저
성림당구장,당구장,서울특별시 중구 을지로4가 을지로,스트레스 해소; 감정 자극,37.5662957,126.9900691,실내 스포츠/레저
골드스크린골프존,실내골프/스크린골프,서울특별시 마포구 도화동 마포대로,에너지 회복; 스트레스 해소,37.5367823,126.9418272,실내 스포츠/레저
파아란바다,요트장,서울특별시 강남구 신사동 도산대로25길,스트레스 해소; 감정 자극,37.5213326,127.026831,실외 스포츠/레저
북악스크린골프,실내골프/스크린골프,서울특별시 성북구 성북동 성북로,에너지 회복; 스트레스 해소,37.59439,126.9925934,실내 스포츠/레저
뉴스타헬스클럽,헬스/휘트니스,서울특별시 도봉구 방학동 도당로13길,스트레스 해소; 감정 자극,37.6661204,127.0347163,피트니스/운동시설
애플짐,헬스/휘트니스,서울특별시 강서구 내발산동 강서로,스트레스 해소; 감정 자극,37.5507788,126.8363291,피트니스/운동시설
프로투당구장,당구장,서울특별시 영등포구 당산동3가 당산로,스트레스 해소; 감정 자극,37.5252518,126.8965569,실내 스포츠/레저
수서스크린골프존,실내골프/스크린골프,서울특별시 강남구 수서동 광평로51길,에너지 회복; 스트레스 해소,37.4900792,127.1014586,실내 스포츠/레저
은하당구장,당구장,서울특별시 영등포구 여의도동 국제금융로,스트레스 해소; 감정 자극,37.5209509,126.9318158,실내 스포츠/레저
뉴서울당구장,당구장,서울특별시 중구 태평로2가 서소문로,스트레스 해소; 감정 자극,37.5620526,126.9703344,실내 스포츠/레저
21세기헬스,헬스/휘트니스,서울특별시 송파구 거여동 양산로,스트레스 해소; 감정 자극,37.4915898,127.1437623,피트니스/운동시설
메트로짐,헬스/휘트니스,서울특별시 구로구 구로동 구로동로,스트레스 해소; 감정 자극,37.4860547,126.8855838,피트니스/운동시설
이튼스크린골프,실내골프/스크린골프,서울특별시 광진구 자양동 능동로,에너지 회복; 스트레스 해소,37.5375517,127.0696332,실내 스포츠/레저
타이거즈당구장,당구장,서울특별시 성북구 안암동5가 개운사길,스트레스 해소; 감정 자극,37.5896432,127.030019,실내 스포츠/레저
우이볼링장,볼링장,서울특별시 강북구 수유동 삼양로,스트레스 해소; 감정 자극,37.6353867,127.0170277,실내 스포츠/레저
제이엔비레포츠클럽,헬스/휘트니스,서울특별시 송파구 풍납동 토성로,스트레스 해소; 감정 자극,37.5297467,127.1148779,피트니스/운동시설
뉴황제스크린골프,실내골프/스크린골프,서울특별시 동작구 사당동 동작대로25길,에너지 회복; 스트레스 해소,37.4846169,126.9794192,실내 스포츠/레저
월드휘트니스,헬스/휘트니스,서울특별시 마포구 염리동 독막로,스트레스 해소; 감정 자극,37.5447824,126.9457929,피트니스/운동시설
자메이카휘트니스,헬스/휘트니스,서울특별시 관악구 봉천동 남부순환로,스트레스 해소; 감정 자극,37.482104,126.9491729,피트니스/운동시설
르네상스휘트니스클럽,헬스/휘트니스,서울특별시 송파구 오금동 오금로,스트레스 해소; 감정 자극,37.5026783,127.1271012,피트니스/운동시설
해와달스크린골프존,실내골프/스크린골프,서울특별시 강서구 화곡동 화곡로,에너지 회복; 스트레스 해소,37.5414074,126.8415864,실내 스포츠/레저
거룡체육관,지역실내체육관,서울특별시 중랑구 면목동 면목로,에너지 회복; 스트레스 해소,37.5816841,127.0886238,피트니스/운동시설
유에프오포켓볼,당구장,서울특별시 종로구 명륜4가 대명길,스트레스 해소; 감정 자극,37.5833284,127.0003038,실내 스포츠/레저
스와시휘트니스클럽,헬스/휘트니스,서울특별시 마포구 동교동 연희로,스트레스 해소; 감정 자극,37.5587273,126.9268573,피트니스/운동시설
맥스토탈휘트니스,헬스/휘트니스,서울특별시 광진구 화양동 아차산로,스트레스 해소; 감정 자극,37.5407462,127.0684171,피트니스/운동시설
종암스크린골프스쿨,실내골프/스크린골프,서울특별시 성북구 종암동 종암로,에너지 회복; 스트레스 해소,37.599462,127.0342569,실내 스포츠/레저
한남스크린골프,실내골프/스크린골프,서울특별시 용산구 한남동 한남대로,에너지 회복; 스트레스 해소,37.5333924,127.0076863,실내 스포츠/레저
포임스포츠클럽,헬스/휘트니스,서울특별시 영등포구 대림동 대림로,스트레스 해소; 감정 자극,37.5019187,126.8968464,피트니스/운동시설
스마트빌리아드,당구장,서울특별시 은평구 녹번동 서오릉로2길,스트레스 해소; 감정 자극,37.6023665,126.9274655,실내 스포츠/레저
째즈당구장,당구장,서울특별시 강동구 명일동 동남로75길,스트레스 해소; 감정 자극,37.5543187,127.1549112,실내 스포츠/레저
동작탁구교실,탁구장,서울특별시 동작구 흑석동 현충로,에너지 회복; 스트레스 해소,37.5109655,126.9617918,피트니스/운동시설
용인대풍납태권도,지역실내체육관,서울특별시 송파구 풍납동 풍성로,에너지 회복; 스트레스 해소,37.5343091,127.1170341,피트니스/운동시설
나라휘트니스센터,헬스/휘트니스,서울특별시 강남구 신사동 압구정로,스트레스 해소; 감정 자극,37.5283635,127.0383787,피트니스/운동시설
골든짐스포츠,헬스/휘트니스,서울특별시 중구 장충동1가 장충단로,스트레스 해소; 감정 자극,37.5622474,127.0064864,피트니스/운동시설
골든베어스크린골프장,실내골프/스크린골프,서울특별시 동작구 사당동 사당로,에너지 회복; 스트레스 해소,37.4858226,126.9698251,실내 스포츠/레저
올림푸스당구장,당구장,서울특별시 관악구 신림동 신림로,스트레스 해소; 감정 자극,37.4717581,126.9335007,실내 스포츠/레저
귀빈당구장,당구장,서울특별시 중구 을지로2가 삼일대로12길,스트레스 해소; 감정 자극,37.5667238,126.9886515,실내 스포츠/레저
V트렁크헬스클럽,헬스/휘트니스,서울특별시 서초구 우면동 바우뫼로7길,스트레스 해소; 감정 자극,37.4713458,127.0245034,피트니스/운동시설
오류테니스장,테니스장,서울특별시 구로구 오류동 오리로,에너지 회복; 스트레스 해소,37.4884195,126.8365683,피트니스/운동시설
오렌지당구장,당구장,서울특별시 영등포구 여의도동 국제금융로,스트레스 해소; 감정 자극,37.5209509,126.9318158,실내 스포츠/레저
가산당구장,당구장,서울특별시 금천구 가산동 가산디지털1로,스트레스 해소; 감정 자극,37.4776652,126.8827945,실내 스포츠/레저
K2당구장,당구장,서울특별시 강동구 명일동 동남로75길,스트레스 해소; 감정 자극,37.5543187,127.1549112,실내 스포츠/레저
SP당구장,당구장,서울특별시 강남구 수서동 광평로56길,스트레스 해소; 감정 자극,37.4871329,127.1040775,실내 스포츠/레저
탑당구장,당구장,서울특별시 관악구 신림동 신림로,스트레스 해소; 감정 자극,37.4717581,126.9335007,실내 스포츠/레저
더블유플러스휘트니스센터,헬스/휘트니스,서울특별시 강남구 논현동 논현로,스트레스 해소; 감정 자극,37.5154155,127.0300294,피트니스/운동시설
태광스쿼시클럽,스포츠센터,서울특별시 강서구 내발산동 강서로52길,에너지 회복; 스트레스 해소,37.5576279,126.840941,피트니스/운동시설
실내낚시터,실내낚시터,서울특별시 은평구 대조동 서오릉로,안정감; 감정 정화,37.6101479,126.9190402,실내 스포츠/레저
혜우볼링센터,볼링장,서울특별시 서대문구 대현동 신촌역로,스트레스 해소; 감정 자극,37.5584469,126.9425086,실내 스포츠/레저
청마휘트니스,헬스/휘트니스,서울특별시 도봉구 창동 도봉로110길,스트레스 해소; 감정 자극,37.6462016,127.0364311,피트니스/운동시설
세란골프,실내골프/스크린골프,서울특별시 종로구 무악동 통일로,에너지 회복; 스트레스 해소,37.5779642,126.9546851,실내 스포츠/레저
일신스포츠,헬스/휘트니스,서울특별시 마포구 도화동 삼개로,스트레스 해소; 감정 자극,37.5401553,126.9473095,피트니스/운동시설
나노체육시설운영,일반수영장,서울특별시 서대문구 남가좌동 증가로,에너지 회복; 안정감,37.5758721,126.9254361,수영/수상스포츠
석금당구장,당구장,서울특별시 성동구 마장동 ,스트레스 해소; 감정 자극,37.56743,127.04045,실내 스포츠/레저
고려당구장,당구장,서울특별시 성북구 안암동5가 안암로9가길,스트레스 해소; 감정 자극,37.5811591,127.0266126,실내 스포츠/레저
그린샷스크린골프,실내골프/스크린골프,서울특별시 도봉구 도봉동 도봉로,에너지 회복; 스트레스 해소,37.6743759,127.044344,실내 스포츠/레저
삼성골드스포츠클럽,일반수영장,서울특별시 서대문구 남가좌동 증가로,에너지 회복; 안정감,37.5758721,126.9254361,수영/수상스포츠
흥봉헬스클럽,헬스/휘트니스,서울특별시 노원구 상계동 한글비석로44길,스트레스 해소; 감정 자극,37.6644933,127.0705301,피트니스/운동시설
풀스윙스크린골프,실내골프/스크린골프,서울특별시 강남구 삼성동 테헤란로87길,에너지 회복; 스트레스 해소,37.5086166,127.0589795,실내 스포츠/레저
용산탁구클럽,탁구장,서울특별시 용산구 원효로2가 원효로,에너지 회복; 스트레스 해소,37.5354634,126.9618637,피트니스/운동시설
하바나스크린골프,실내골프/스크린골프,서울특별시 강북구 미아동 도봉로,에너지 회복; 스트레스 해소,37.6308331,127.024486,실내 스포츠/레저
클럽I앤J헬스클럽,스포츠센터,서울특별시 강남구 압구정동 ,에너지 회복; 스트레스 해소,37.5300432,127.0313346,피트니스/운동시설
서소문당구장,당구장,서울특별시 중구 서소문동 서소문로,스트레스 해소; 감정 자극,37.5620526,126.9703344,실내 스포츠/레저
수정당구장,당구장,서울특별시 성동구 성수동1가 왕십리로4길,스트레스 해소; 감정 자극,37.5455845,127.0453108,실내 스포츠/레저
월드짐,헬스/휘트니스,서울특별시 마포구 합정동 독막로6길,스트레스 해소; 감정 자극,37.547083,126.9172629,피트니스/운동시설
월드컵당구장,당구장,서울특별시 구로구 개봉동 남부순환로97길,스트레스 해소; 감정 자극,37.4940353,126.8584457,실내 스포츠/레저
선골프연습장,실내골프/스크린골프,서울특별시 성동구 성수동2가 성덕정길,에너지 회복; 스트레스 해소,37.5371012,127.0576727,실내 스포츠/레저
비타민휘트니스클럽,헬스/휘트니스,서울특별시 은평구 구산동 연서로,스트레스 해소; 감정 자극,37.6093881,126.9162384,피트니스/운동시설
스쿠버블루,요트장,서울특별시 강남구 삼성동 영동대로129길,스트레스 해소; 감정 자극,37.5175317,127.0546663,실외 스포츠/레저
자이언트당구장,당구장,서울특별시 관악구 봉천동 관악로,스트레스 해소; 감정 자극,37.4812588,126.9527443,실내 스포츠/레저
매일헬스클럽,헬스/휘트니스,서울특별시 양천구 신정동 신월로,스트레스 해소; 감정 자극,37.5213479,126.8521006,피트니스/운동시설
사당탁구장,탁구장,서울특별시 동작구 사당동 사당로,에너지 회복; 스트레스 해소,37.4858226,126.9698251,피트니스/운동시설
타이거스크린골프,실내골프/스크린골프,서울특별시 동작구 대방동 등용로,에너지 회복; 스트레스 해소,37.505551,126.9342135,실내 스포츠/레저
이왕표체육관,지역실내체육관,서울특별시 영등포구 양평동1가 영등포로,에너지 회복; 스트레스 해소,37.5225147,126.888502,피트니스/운동시설
삼승헬스클럽,헬스/휘트니스,서울특별시 중랑구 묵동 동일로,스트레스 해소; 감정 자극,37.6113605,127.0776235,피트니스/운동시설
소락당구장,당구장,서울특별시 중구 만리동1가 만리재로,스트레스 해소; 감정 자극,37.5557773,126.9677812,실내 스포츠/레저
엠당구장,당구장,서울특별시 영등포구 양평동4가 선유로49길,스트레스 해소; 감정 자극,37.536476,126.8955505,실내 스포츠/레저
월드스타휘트니스클럽,헬스/휘트니스,서울특별시 도봉구 쌍문동 우이천로32길,스트레스 해소; 감정 자극,37.6505143,127.0251994,피트니스/운동시설
대동종합체육관,지역실내체육관,서울특별시 마포구 염리동 신촌로,에너지 회복; 스트레스 해소,37.5570222,126.9510199,피트니스/운동시설
예스휘트니스,헬스/휘트니스,서울특별시 관악구 봉천동 관악로,스트레스 해소; 감정 자극,37.4812588,126.9527443,피트니스/운동시설
남영볼링센터,볼링장,서울특별시 용산구 갈월동 한강대로,스트레스 해소; 감정 자극,37.5446302,126.9719792,실내 스포츠/레저
코드짐,헬스/휘트니스,서울특별시 노원구 상계동 상계로,스트레스 해소; 감정 자극,37.662197,127.0747824,피트니스/운동시설
나비스포렉스,실내골프/스크린골프,서울특별시 서대문구 홍제동 통일로34길,에너지 회복; 스트레스 해소,37.5861285,126.9498964,실내 스포츠/레저
염창드림골프존,실내골프/스크린골프,서울특별시 강서구 염창동 공항대로59다길,에너지 회복; 스트레스 해소,37.5516195,126.8683148,실내 스포츠/레저
여의도골프존,실내골프/스크린골프,서울특별시 영등포구 여의도동 국제금융로,에너지 회복; 스트레스 해소,37.5209509,126.9318158,실내 스포츠/레저
굿모닝헬스,헬스/휘트니스,서울특별시 성동구 성수동2가 성수이로,스트레스 해소; 감정 자극,37.5358659,127.0539178,피트니스/운동시설
한아름탁구장,탁구장,서울특별시 광진구 화양동 능동로13길,에너지 회복; 스트레스 해소,37.5443871,127.0695053,피트니스/운동시설
명문헬스골프,헬스/휘트니스,서울특별시 동작구 상도동 상도로,스트레스 해소; 감정 자극,37.5030223,126.9360156,피트니스/운동시설
카리브헬스휘트니스,헬스/휘트니스,서울특별시 서초구 서초동 서초대로,스트레스 해소; 감정 자극,37.49381,127.0143743,피트니스/운동시설
더블에이치멀티짐,헬스/휘트니스,서울특별시 강남구 신사동 도산대로,스트레스 해소; 감정 자극,37.5225171,127.0368164,피트니스/운동시설
오케이스크린골프존,실내골프/스크린골프,서울특별시 강남구 신사동 선릉로,에너지 회복; 스트레스 해소,37.525515,127.0398999,실내 스포츠/레저
경희궁스포츠센터,스포츠센터,서울특별시 종로구 당주동 새문안로3길,에너지 회복; 스트레스 해소,37.5729873,126.9726494,피트니스/운동시설
그랜드슬램테니스장,테니스장,서울특별시 은평구 불광동 ,에너지 회복; 스트레스 해소,37.6194236,126.9354046,피트니스/운동시설
렉시온당구장,당구장,서울특별시 서초구 서초동 강남대로,스트레스 해소; 감정 자극,37.500088,127.0262063,실내 스포츠/레저
제너시스21,서바이벌게임장,서울특별시 종로구 종로2가 종로,감정 자극; 스트레스 해소,37.5701732,126.987742,실내 스포츠/레저
챔피언탁구장,탁구장,서울특별시 중랑구 망우동 망우로,에너지 회복; 스트레스 해소,37.600541,127.1053362,피트니스/운동시설
대원당구장,당구장,서울특별시 금천구 시흥동 시흥대로,스트레스 해소; 감정 자극,37.4479738,126.9033279,실내 스포츠/레저
임팩트스크린골프장,실내골프/스크린골프,서울특별시 종로구 숭인동 종로,에너지 회복; 스트레스 해소,37.5736453,127.0165769,실내 스포츠/레저
모아당구장,당구장,서울특별시 서대문구 냉천동 통일로,스트레스 해소; 감정 자극,37.5665561,126.9652462,실내 스포츠/레저
한일탁구장,탁구장,서울특별시 구로구 개봉동 개봉로,에너지 회복; 스트레스 해소,37.4945424,126.8562589,피트니스/운동시설
제이앤시남여헬스클럽,헬스/휘트니스,서울특별시 노원구 상계동 한글비석로,스트레스 해소; 감정 자극,37.6604332,127.0719118,피트니스/운동시설
삼진당구장,당구장,서울특별시 송파구 삼전동 삼학사로13길,스트레스 해소; 감정 자극,37.5035458,127.0941131,실내 스포츠/레저
영광헬스클럽,헬스/휘트니스,서울특별시 은평구 녹번동 녹번로,스트레스 해소; 감정 자극,37.6047275,126.9282516,피트니스/운동시설
두리당구장,당구장,서울특별시 중구 태평로1가 세종대로21길,스트레스 해소; 감정 자극,37.5676865,126.9757315,실내 스포츠/레저
서문당구장,당구장,서울특별시 중구 태평로2가 서소문로,스트레스 해소; 감정 자극,37.5620526,126.9703344,실내 스포츠/레저
21세기당구장,당구장,서울특별시 성북구 보문동4가 보문로,스트레스 해소; 감정 자극,37.5866456,127.0186589,실내 스포츠/레저
아일랜드스크린골프,실내골프/스크린골프,서울특별시 영등포구 여의도동 국회대로70길,에너지 회복; 스트레스 해소,37.5292969,126.9202776,실내 스포츠/레저
포인트당구장,당구장,서울특별시 마포구 합정동 양화로,스트레스 해소; 감정 자극,37.5482807,126.9104886,실내 스포츠/레저
오렌지휘트니스2,헬스/휘트니스,서울특별시 관악구 봉천동 남부순환로,스트레스 해소; 감정 자극,37.482104,126.9491729,피트니스/운동시설
오메가당구장,당구장,서울특별시 양천구 신월동 월정로,스트레스 해소; 감정 자극,37.532924,126.8363283,실내 스포츠/레저
서교휘트니스,헬스/휘트니스,서울특별시 마포구 서교동 잔다리로,스트레스 해소; 감정 자극,37.5569376,126.9141526,피트니스/운동시설
25시당구장,당구장,서울특별시 영등포구 당산동1가 영등포로,스트레스 해소; 감정 자극,37.5209946,126.8983668,실내 스포츠/레저
세운당구장,당구장,서울특별시 종로구 장사동 종로26길,스트레스 해소; 감정 자극,37.5696118,126.9949669,실내 스포츠/레저
비바체당구클럽,당구장,서울특별시 강남구 논현동 봉은사로,스트레스 해소; 감정 자극,37.5055954,127.0280206,실내 스포츠/레저
레드타이거스포츠클럽,헬스/휘트니스,서울특별시 노원구 중계동 중계로12가길,스트레스 해소; 감정 자극,37.6476863,127.0823848,피트니스/운동시설
네오맥스휘트니스,헬스/휘트니스,서울특별시 영등포구 대림동 가마산로48길,스트레스 해소; 감정 자극,37.5016749,126.9015709,피트니스/운동시설
우정골프존,실내골프/스크린골프,서울특별시 강동구 둔촌동 풍성로,에너지 회복; 스트레스 해소,37.5261326,127.1465097,실내 스포츠/레저
유원스크린골프,실내골프/스크린골프,서울특별시 금천구 가산동 가산디지털2로,에너지 회복; 스트레스 해소,37.4820799,126.8781353,실내 스포츠/레저
세원볼링센터,볼링장,서울특별시 양천구 신정동 신월로,스트레스 해소; 감정 자극,37.5213479,126.8521006,실내 스포츠/레저
피아휘트니스센터,헬스/휘트니스,서울특별시 강남구 논현동 강남대로,스트레스 해소; 감정 자극,37.5090782,127.0224067,피트니스/운동시설
퀸당구장,당구장,서울특별시 마포구 성산동 모래내로1길,스트레스 해소; 감정 자극,37.5650222,126.903539,실내 스포츠/레저
심몽당구장,당구장,서울특별시 중구 신당동 ,스트레스 해소; 감정 자극,37.5651969,127.01322,실내 스포츠/레저
힐헬스,헬스/휘트니스,서울특별시 성동구 행당동 왕십리로,스트레스 해소; 감정 자극,37.5590431,127.0378622,피트니스/운동시설
길현탁구장,탁구장,서울특별시 서대문구 북가좌동 응암로,에너지 회복; 스트레스 해소,37.5836838,126.9145097,피트니스/운동시설
삼호당구,당구장,서울특별시 중구 주교동 을지로33길,스트레스 해소; 감정 자극,37.5672119,126.9993385,실내 스포츠/레저
다동당구장,당구장,서울특별시 중구 다동 남대문로9길,스트레스 해소; 감정 자극,37.566849,126.9803486,실내 스포츠/레저
알프스당구장,당구장,서울특별시 도봉구 방학동 도당로13길,스트레스 해소; 감정 자극,37.6661204,127.0347163,실내 스포츠/레저
이레휘트니스,헬스/휘트니스,서울특별시 성동구 용답동 자동차시장1길,스트레스 해소; 감정 자극,37.5609606,127.0609086,피트니스/운동시설
홀인원,실내골프/스크린골프,서울특별시 중구 신당동 다산로,에너지 회복; 스트레스 해소,37.5674901,127.0161009,실내 스포츠/레저
상아당구장,당구장,서울특별시 용산구 갈월동 한강대로81길,스트레스 해소; 감정 자극,37.5427303,126.971613,실내 스포츠/레저
용인대풍진태권도장,지역실내체육관,서울특별시 강동구 천호동 천중로17길,에너지 회복; 스트레스 해소,37.5464442,127.1317065,피트니스/운동시설
후원에스지스크린골프장,실내골프/스크린골프,서울특별시 관악구 신림동 남부순환로,에너지 회복; 스트레스 해소,37.4842956,126.9298124,실내 스포츠/레저
제일메가스포휘트니스,헬스/휘트니스,서울특별시 종로구 연건동 율곡로,스트레스 해소; 감정 자극,37.575933,126.9997404,피트니스/운동시설
금강스크린골프,실내골프/스크린골프,서울특별시 영등포구 문래동5가 선유로,에너지 회복; 스트레스 해소,37.5194314,126.8893618,실내 스포츠/레저
올림픽당구장,당구장,서울특별시 종로구 관철동 삼일대로19길,스트레스 해소; 감정 자극,37.5695674,126.9866905,실내 스포츠/레저
신한당구장,당구장,서울특별시 용산구 서계동 만리재로,스트레스 해소; 감정 자극,37.5541111,126.9656703,실내 스포츠/레저
VIP당구장,당구장,서울특별시 마포구 서교동 홍익로3길,스트레스 해소; 감정 자극,37.5534377,126.9218889,실내 스포츠/레저
주공태권도,지역실내체육관,서울특별시 도봉구 창동 노해로66길,에너지 회복; 스트레스 해소,37.647158,127.0488629,피트니스/운동시설
태권도지도관,스포츠센터,서울특별시 용산구 한남동 우사단로10길,에너지 회복; 스트레스 해소,37.5315354,127.0019424,피트니스/운동시설
중앙헬스클럽,헬스/휘트니스,서울특별시 중구 중림동 청파로103길,스트레스 해소; 감정 자극,37.558296,126.9685612,피트니스/운동시설
웰리스운동센타,헬스/휘트니스,서울특별시 강남구 역삼동 언주로,스트레스 해소; 감정 자극,37.4963919,127.0458068,피트니스/운동시설
헤이당구장,당구장,서울특별시 마포구 동교동 홍익로6길,스트레스 해소; 감정 자극,37.5570244,126.9251895,실내 스포츠/레저
한게임당구장,당구장,서울특별시 성동구 용답동 용답중앙길,스트레스 해소; 감정 자극,37.5635666,127.0531542,실내 스포츠/레저
태양당구클럽,당구장,서울특별시 마포구 합정동 양화로3길,스트레스 해소; 감정 자극,37.5506228,126.9113005,실내 스포츠/레저
남경당구클럽,당구장,서울특별시 마포구 합정동 포은로2가길,스트레스 해소; 감정 자극,37.5511975,126.9080127,실내 스포츠/레저
태광스포츠클럽,스포츠센터,서울특별시 강서구 내발산동 강서로52길,에너지 회복; 스트레스 해소,37.5576279,126.840941,피트니스/운동시설
햇빛당구장,당구장,서울특별시 강동구 고덕동 아리수로74길,스트레스 해소; 감정 자극,37.5609277,127.1622007,실내 스포츠/레저
휘트니스파크,헬스/휘트니스,서울특별시 광진구 군자동 능동로,스트레스 해소; 감정 자극,37.5540997,127.0772388,피트니스/운동시설
웅진당구장,당구장,서울특별시 성동구 성수동2가 연무장길,스트레스 해소; 감정 자극,37.5411759,127.0595267,실내 스포츠/레저
굿모닝헬스타운,헬스/휘트니스,서울특별시 노원구 중계동 중계로12가길,스트레스 해소; 감정 자극,37.6476863,127.0823848,피트니스/운동시설
중앙헬스휘트니스,헬스/휘트니스,서울특별시 동대문구 이문동 외대역동로,스트레스 해소; 감정 자극,37.5985768,127.0657002,피트니스/운동시설
존슨휘트니스,헬스/휘트니스,서울특별시 송파구 잠실동 올림픽로,스트레스 해소; 감정 자극,37.5115211,127.0757714,피트니스/운동시설
그린에이로빅,헬스/휘트니스,서울특별시 성북구 석관동 돌곶이로8바길,스트레스 해소; 감정 자극,37.608066,127.0639871,피트니스/운동시설
웰리스휘트니스,헬스/휘트니스,서울특별시 구로구 구로동 경인로,스트레스 해소; 감정 자극,37.5003017,126.8758793,피트니스/운동시설
바디아트,헬스/휘트니스,서울특별시 광진구 군자동 능동로,스트레스 해소; 감정 자극,37.5540997,127.0772388,피트니스/운동시설
익스트림피트니스,헬스/휘트니스,서울특별시 마포구 상암동 월드컵북로,스트레스 해소; 감정 자극,37.5825783,126.8832349,피트니스/운동시설
고척스카이돔,프로야구경기장,서울특별시 구로구 고척동 경인로,에너지 회복; 스트레스 해소,37.4975857,126.8637132,경기장/관람시설
반포공설운동장체육센터,지역체육센터,서울특별시 서초구 반포동 신반포로16길,에너지 회복; 스트레스 해소,37.4998032,126.9967101,피트니스/운동시설
살곶이정,궁도장,서울특별시 성동구 행당동 ,안정감; 사회적 연결,37.55783,127.03571,실외 스포츠/레저
엠파이어휘트니스,헬스/휘트니스,서울특별시 영등포구 여의도동 국제금융로6길,스트레스 해소; 감정 자극,37.521872,126.9275525,피트니스/운동시설
궁전당구장,당구장,서울특별시 구로구 개봉동 개봉로,스트레스 해소; 감정 자극,37.4945424,126.8562589,실내 스포츠/레저
나이스당구장,당구장,서울특별시 구로구 개봉동 개봉로,스트레스 해소; 감정 자극,37.4945424,126.8562589,실내 스포츠/레저
와이키키휘트니스,헬스/휘트니스,서울특별시 강동구 길동 양재대로,스트레스 해소; 감정 자극,37.5375025,127.1398729,피트니스/운동시설
세명당구장,당구장,서울특별시 구로구 개봉동 개봉로20길,스트레스 해소; 감정 자극,37.4927802,126.8599687,실내 스포츠/레저
궁동산체육관,지역실내체육관,서울특별시 서대문구 연희동 연희로11마길,에너지 회복; 스트레스 해소,37.5689167,126.9254502,피트니스/운동시설
비바피트니스클럽,헬스/휘트니스,서울특별시 서대문구 북가좌동 응암로,스트레스 해소; 감정 자극,37.5836838,126.9145097,피트니스/운동시설
메트로스포츠센터,헬스/휘트니스,서울특별시 중구 무교동 무교로,스트레스 해소; 감정 자극,37.5674649,126.9792221,피트니스/운동시설
패밀리당구카페,당구장,서울특별시 금천구 시흥동 금하로,스트레스 해소; 감정 자극,37.4516854,126.9073247,실내 스포츠/레저
프리스티지,헬스/휘트니스,서울특별시 강남구 삼성동 테헤란로87길,스트레스 해소; 감정 자극,37.5086166,127.0589795,피트니스/운동시설
밀레니엄짐,헬스/휘트니스,서울특별시 마포구 상암동 월드컵북로56길,스트레스 해소; 감정 자극,37.5815471,126.8880207,피트니스/운동시설
뉴올림픽헬스,헬스/휘트니스,서울특별시 송파구 방이동 백제고분로50길,스트레스 해소; 감정 자극,37.5134106,127.1180192,피트니스/운동시설
하나골프스쿨,실내골프/스크린골프,서울특별시 은평구 증산동 증산서길,에너지 회복; 스트레스 해소,37.5868262,126.9094379,실내 스포츠/레저
로타리당구장,당구장,서울특별시 서대문구 홍제동 통일로,스트레스 해소; 감정 자극,37.5838023,126.9495888,실내 스포츠/레저
월드당구클럽,당구장,서울특별시 송파구 장지동 충민로2길,스트레스 해소; 감정 자극,37.478047,127.1273951,실내 스포츠/레저
비바체당구장,당구장,서울특별시 서대문구 홍제동 통일로,스트레스 해소; 감정 자극,37.5838023,126.9495888,실내 스포츠/레저
스페이스본휘트니스&사우나,헬스/휘트니스,서울특별시 종로구 사직동 사직로8길,스트레스 해소; 감정 자극,37.574107,126.9724134,피트니스/운동시설
다저스당구장,당구장,서울특별시 강동구 천호동 구천면로,스트레스 해소; 감정 자극,37.5469479,127.1339475,실내 스포츠/레저
주영볼링센터,볼링장,서울특별시 강서구 가양동 양천로,스트레스 해소; 감정 자극,37.5627471,126.8519544,실내 스포츠/레저
주영당구클럽,당구장,서울특별시 강서구 가양동 양천로,스트레스 해소; 감정 자극,37.5627471,126.8519544,실내 스포츠/레저
369당구장,당구장,서울특별시 강서구 화곡동 화곡로,스트레스 해소; 감정 자극,37.5414074,126.8415864,실내 스포츠/레저
서울숲골프존,실내골프/스크린골프,서울특별시 동작구 상도동 상도로,에너지 회복; 스트레스 해소,37.5030223,126.9360156,실내 스포츠/레저
우진당구장,당구장,서울특별시 구로구 궁동 오리로,스트레스 해소; 감정 자극,37.5025971,126.8290634,실내 스포츠/레저
성보당구장,당구장,서울특별시 구로구 구로동 가마산로,스트레스 해소; 감정 자극,37.488503,126.8810697,실내 스포츠/레저
달인당구클럽,당구장,서울특별시 은평구 녹번동 은평로,스트레스 해소; 감정 자극,37.6018768,126.9301521,실내 스포츠/레저
브라보스크린골프,실내골프/스크린골프,서울특별시 서초구 방배동 방배로,에너지 회복; 스트레스 해소,37.4783113,126.9997061,실내 스포츠/레저
신목탁구,탁구장,서울특별시 양천구 목동 목동중앙로,에너지 회복; 스트레스 해소,37.5357127,126.8704635,피트니스/운동시설
챔프24,당구장,서울특별시 강남구 논현동 도산대로,스트레스 해소; 감정 자극,37.517912,127.0241023,실내 스포츠/레저
천재당구장,당구장,서울특별시 송파구 풍납동 올림픽로47길,스트레스 해소; 감정 자극,37.5282469,127.1172946,실내 스포츠/레저
스타헬스클럽,헬스/휘트니스,서울특별시 서대문구 남가좌동 증가로,스트레스 해소; 감정 자극,37.5758721,126.9254361,피트니스/운동시설
제이헬스,헬스/휘트니스,서울특별시 용산구 한남동 대사관로34길,스트레스 해소; 감정 자극,37.5316672,127.0057043,피트니스/운동시설
명품당구장,당구장,서울특별시 용산구 한남동 대사관로34길,스트레스 해소; 감정 자극,37.5316672,127.0057043,실내 스포츠/레저
상원스포월드,헬스/휘트니스,서울특별시 은평구 구산동 서오릉로,스트레스 해소; 감정 자극,37.6111902,126.916207,피트니스/운동시설
마운틴당구클럽,당구장,서울특별시 강서구 공항동 공항대로,스트레스 해소; 감정 자극,37.5598386,126.8264988,실내 스포츠/레저
청운당구장,당구장,서울특별시 강서구 공항동 공항대로,스트레스 해소; 감정 자극,37.5598386,126.8264988,실내 스포츠/레저
리스당구장,당구장,서울특별시 용산구 효창동 효창원로69길,스트레스 해소; 감정 자극,37.5427871,126.9603016,실내 스포츠/레저
만리탁구클럽,탁구장,서울특별시 용산구 서계동 효창원로,에너지 회복; 스트레스 해소,37.5519045,126.9629738,피트니스/운동시설
더라인휘트니스,헬스/휘트니스,서울특별시 강남구 역삼동 테헤란로,스트레스 해소; 감정 자극,37.5034432,127.0458432,피트니스/운동시설
성화당구장,당구장,서울특별시 마포구 구수동 토정로,스트레스 해소; 감정 자극,37.5450319,126.933469,실내 스포츠/레저
클래식스크린골프,실내골프/스크린골프,서울특별시 용산구 한남동 독서당로,에너지 회복; 스트레스 해소,37.5331534,127.0072808,실내 스포츠/레저
OK스크린골프방,실내골프/스크린골프,서울특별시 마포구 서교동 잔다리로,에너지 회복; 스트레스 해소,37.5569376,126.9141526,실내 스포츠/레저
용당구장,당구장,서울특별시 용산구 용산동2가 신흥로,스트레스 해소; 감정 자극,37.5444274,126.9871941,실내 스포츠/레저
제이제이당구클럽,당구장,서울특별시 관악구 봉천동 남부순환로,스트레스 해소; 감정 자극,37.482104,126.9491729,실내 스포츠/레저
하이클래스,당구장,서울특별시 은평구 구산동 서오릉로,스트레스 해소; 감정 자극,37.6111902,126.916207,실내 스포츠/레저
나인짐휘트니스클럽,헬스/휘트니스,서울특별시 관악구 봉천동 남부순환로,스트레스 해소; 감정 자극,37.482104,126.9491729,피트니스/운동시설
챔프골프연습장,실내골프/스크린골프,서울특별시 관악구 봉천동 남부순환로,에너지 회복; 스트레스 해소,37.482104,126.9491729,실내 스포츠/레저
퍼즐당구클럽,당구장,서울특별시 강동구 길동 양재대로116길,스트레스 해소; 감정 자극,37.5380844,127.1431788,실내 스포츠/레저
명당구클럽,당구장,서울특별시 마포구 서교동 어울마당로,스트레스 해소; 감정 자극,37.555427,126.9236596,실내 스포츠/레저
롯데스크린골프존,실내골프/스크린골프,서울특별시 강남구 대치동 도곡로,에너지 회복; 스트레스 해소,37.5023492,127.0715737,실내 스포츠/레저
가이당구클럽,당구장,서울특별시 구로구 가리봉동 남부순환로107길,스트레스 해소; 감정 자극,37.4792897,126.8938649,실내 스포츠/레저
수당구장,당구장,서울특별시 관악구 봉천동 봉천로,스트레스 해소; 감정 자극,37.4826787,126.9495443,실내 스포츠/레저
메이저당구클럽,당구장,서울특별시 영등포구 도림동 도신로,스트레스 해소; 감정 자극,37.5094993,126.907095,실내 스포츠/레저
본당구클럽,당구장,서울특별시 강남구 대치동 삼성로,스트레스 해소; 감정 자극,37.5028596,127.0591472,실내 스포츠/레저
DL휘트니스센타,헬스/휘트니스,서울특별시 성동구 용답동 천호대로,스트레스 해소; 감정 자극,37.5718615,127.0440633,피트니스/운동시설
S라인,당구장,서울특별시 성동구 용답동 용답중앙15길,스트레스 해소; 감정 자극,37.5645114,127.0537563,실내 스포츠/레저
제이당구장,당구장,서울특별시 금천구 독산동 시흥대로116길,스트레스 해소; 감정 자극,37.4686923,126.8988069,실내 스포츠/레저
OK당구클럽,당구장,서울특별시 강남구 삼성동 봉은사로,스트레스 해소; 감정 자극,37.5136222,127.0567549,실내 스포츠/레저
청솔당구장,당구장,서울특별시 구로구 고척동 중앙로,스트레스 해소; 감정 자극,37.4997829,126.8641328,실내 스포츠/레저
오케이스크린골프,실내골프/스크린골프,서울특별시 구로구 고척동 중앙로3길,에너지 회복; 스트레스 해소,37.5003993,126.8625887,실내 스포츠/레저
선일당구장,당구장,서울특별시 마포구 용강동 토정로,스트레스 해소; 감정 자극,37.5434511,126.9380823,실내 스포츠/레저
꾼당구클럽,당구장,서울특별시 마포구 용강동 토정로,스트레스 해소; 감정 자극,37.5434511,126.9380823,실내 스포츠/레저
골드당구클럽,당구장,서울특별시 강서구 화곡동 화곡로,스트레스 해소; 감정 자극,37.5414074,126.8415864,실내 스포츠/레저
케이투당구장,당구장,서울특별시 관악구 봉천동 남부순환로,스트레스 해소; 감정 자극,37.482104,126.9491729,실내 스포츠/레저
매니아당구장,당구장,서울특별시 강남구 개포동 개포로,스트레스 해소; 감정 자극,37.489715,127.0695778,실내 스포츠/레저
정훈당구장,당구장,서울특별시 금천구 독산동 독산로,스트레스 해소; 감정 자극,37.4686271,126.9022919,실내 스포츠/레저
쌍문헬스,헬스/휘트니스,서울특별시 도봉구 쌍문동 노해로,스트레스 해소; 감정 자극,37.6482741,127.0261233,피트니스/운동시설
삼성당구장,당구장,서울특별시 중구 중림동 중림로,스트레스 해소; 감정 자극,37.558421,126.9664728,실내 스포츠/레저
오선생파워로빅,헬스/휘트니스,서울특별시 노원구 상계동 한글비석로,스트레스 해소; 감정 자극,37.6604332,127.0719118,피트니스/운동시설
킹콩당구장,당구장,서울특별시 용산구 신계동 새창로45길,스트레스 해소; 감정 자극,37.5348943,126.9644685,실내 스포츠/레저
동신스크린골프,실내골프/스크린골프,서울특별시 마포구 공덕동 마포대로,에너지 회복; 스트레스 해소,37.5449366,126.9522422,실내 스포츠/레저
오병만탁구클럽,탁구장,서울특별시 관악구 봉천동 양녕로,에너지 회복; 스트레스 해소,37.485759,126.946929,피트니스/운동시설
네오짐,헬스/휘트니스,서울특별시 관악구 봉천동 양녕로,스트레스 해소; 감정 자극,37.485759,126.946929,피트니스/운동시설
승리당구장,당구장,서울특별시 도봉구 도봉동 도봉로165길,스트레스 해소; 감정 자극,37.6773676,127.0442779,실내 스포츠/레저
바디짐휘트니스,헬스/휘트니스,서울특별시 관악구 봉천동 양녕로,스트레스 해소; 감정 자극,37.485759,126.946929,피트니스/운동시설
국제체육관,지역실내체육관,서울특별시 도봉구 도봉동 도봉로169나길,에너지 회복; 스트레스 해소,37.6748772,127.042872,피트니스/운동시설
요기당구장,당구장,서울특별시 강서구 화곡동 강서로,스트레스 해소; 감정 자극,37.5397125,126.8418447,실내 스포츠/레저
수복골프연습장,실내골프/스크린골프,서울특별시 용산구 후암동 후암로4길,에너지 회복; 스트레스 해소,37.5474705,126.9800039,실내 스포츠/레저
SBS당구장,당구장,서울특별시 은평구 불광동 불광로,스트레스 해소; 감정 자극,37.6189765,126.932671,실내 스포츠/레저
스팅당구장,당구장,서울특별시 노원구 공릉동 공릉로,스트레스 해소; 감정 자극,37.6264226,127.07998,실내 스포츠/레저
로얄헬스,헬스/휘트니스,서울특별시 강서구 화곡동 강서로,스트레스 해소; 감정 자극,37.5397125,126.8418447,피트니스/운동시설
큐플러스당구장,당구장,서울특별시 용산구 청파동1가 청파로,스트레스 해소; 감정 자극,37.5470902,126.9699215,실내 스포츠/레저
신월스포츠클럽,헬스/휘트니스,서울특별시 양천구 신월동 남부순환로,스트레스 해소; 감정 자극,37.5327968,126.8304943,피트니스/운동시설
태양헬스,헬스/휘트니스,서울특별시 마포구 염리동 백범로,스트레스 해소; 감정 자극,37.5469828,126.9440556,피트니스/운동시설
염리당구장,당구장,서울특별시 마포구 염리동 백범로,스트레스 해소; 감정 자극,37.5469828,126.9440556,실내 스포츠/레저
도덕당구장,당구장,서울특별시 용산구 후암동 후암로,스트레스 해소; 감정 자극,37.551661,126.9769176,실내 스포츠/레저
럭셔리당구장,당구장,서울특별시 영등포구 양평동4가 양평로,스트레스 해소; 감정 자극,37.5388277,126.8911509,실내 스포츠/레저
세종당구클럽,당구장,서울특별시 금천구 시흥동 금하로23길,스트레스 해소; 감정 자극,37.4521861,126.908707,실내 스포츠/레저
딱구당구클럽,당구장,서울특별시 동대문구 장안동 답십리로,스트레스 해소; 감정 자극,37.572099,127.0705785,실내 스포츠/레저
구기탁구장,탁구장,서울특별시 종로구 구기동 진흥로,에너지 회복; 스트레스 해소,37.6085043,126.9555665,피트니스/운동시설
스카이탁구클럽,탁구장,서울특별시 동대문구 장안동 답십리로64길,에너지 회복; 스트레스 해소,37.5679346,127.0650091,피트니스/운동시설
퍼펙트당구장,당구장,서울특별시 구로구 고척동 경인로47길,스트레스 해소; 감정 자극,37.5047342,126.8627642,실내 스포츠/레저
한스당구장,당구장,서울특별시 구로구 고척동 경인로47길,스트레스 해소; 감정 자극,37.5047342,126.8627642,실내 스포츠/레저
캠퍼스당구장,당구장,서울특별시 구로구 고척동 중앙로6길,스트레스 해소; 감정 자극,37.500152,126.8667365,실내 스포츠/레저
제이에스스크린골프,실내골프/스크린골프,서울특별시 노원구 월계동 월계로,에너지 회복; 스트레스 해소,37.6283901,127.0562051,실내 스포츠/레저
도화당구장,당구장,서울특별시 마포구 도화동 도화길,스트레스 해소; 감정 자극,37.5391684,126.9467766,실내 스포츠/레저
우리탁구,탁구장,서울특별시 강동구 둔촌동 명일로13길,에너지 회복; 스트레스 해소,37.533638,127.1433453,피트니스/운동시설
영일당구장,당구장,서울특별시 영등포구 양평동1가 영등포로13길,스트레스 해소; 감정 자극,37.5237769,126.889201,실내 스포츠/레저
코빌당구장,당구장,서울특별시 영등포구 양평동1가 선유로,스트레스 해소; 감정 자극,37.527316,126.8913092,실내 스포츠/레저
알까기,당구장,서울특별시 강남구 삼성동 봉은사로,스트레스 해소; 감정 자극,37.5136222,127.0567549,실내 스포츠/레저
중앙헬스,헬스/휘트니스,서울특별시 동대문구 장안동 한천로20길,스트레스 해소; 감정 자극,37.5694941,127.0650873,피트니스/운동시설
리스2000당구장,당구장,서울특별시 용산구 서계동 청파로89길,스트레스 해소; 감정 자극,37.5532796,126.9676847,실내 스포츠/레저
대성당구클럽,당구장,서울특별시 서초구 방배동 효령로,스트레스 해소; 감정 자극,37.4821306,127.0015505,실내 스포츠/레저
밥풀당구장,당구장,서울특별시 은평구 대조동 서오릉로,스트레스 해소; 감정 자극,37.6101479,126.9190402,실내 스포츠/레저
대박당구,당구장,서울특별시 관악구 남현동 남현1길,스트레스 해소; 감정 자극,37.4758652,126.9794501,실내 스포츠/레저
텐당구장,당구장,서울특별시 금천구 시흥동 시흥대로,스트레스 해소; 감정 자극,37.4479738,126.9033279,실내 스포츠/레저
자이안트당구장,당구장,서울특별시 노원구 공릉동 공릉로,스트레스 해소; 감정 자극,37.6264226,127.07998,실내 스포츠/레저
한성클럽,당구장,서울특별시 관악구 봉천동 남부순환로,스트레스 해소; 감정 자극,37.482104,126.9491729,실내 스포츠/레저
당구공간,당구장,서울특별시 양천구 신월동 곰달래로5길,스트레스 해소; 감정 자극,37.5333697,126.8318545,실내 스포츠/레저
온수당구장,당구장,서울특별시 구로구 온수동 부일로1가길,스트레스 해소; 감정 자극,37.4924293,126.8184933,실내 스포츠/레저
올빼미당구장,당구장,서울특별시 구로구 온수동 경인로3길,스트레스 해소; 감정 자극,37.4913233,126.8264177,실내 스포츠/레저
덕성당구클럽,당구장,서울특별시 관악구 봉천동 봉천로,스트레스 해소; 감정 자극,37.4826787,126.9495443,실내 스포츠/레저
커플당구장,당구장,서울특별시 노원구 하계동 공릉로,스트레스 해소; 감정 자극,37.6334452,127.072154,실내 스포츠/레저
평화당구장,당구장,서울특별시 관악구 봉천동 봉천로,스트레스 해소; 감정 자극,37.4826787,126.9495443,실내 스포츠/레저
한신탁구장,탁구장,서울특별시 노원구 상계동 한글비석로,에너지 회복; 스트레스 해소,37.6604332,127.0719118,피트니스/운동시설
용강헬스크럽,헬스/휘트니스,서울특별시 마포구 용강동 토정로32길,스트레스 해소; 감정 자극,37.5398814,126.9417228,피트니스/운동시설
상암탁구클럽,탁구장,서울특별시 은평구 수색동 수색로,에너지 회복; 스트레스 해소,37.5842462,126.8910649,피트니스/운동시설
산소방웰빙헬스,헬스/휘트니스,서울특별시 노원구 공릉동 공릉로46길,스트레스 해소; 감정 자극,37.6275126,127.0821299,피트니스/운동시설
용강당구장,당구장,서울특별시 마포구 용강동 토정로32길,스트레스 해소; 감정 자극,37.5398814,126.9417228,실내 스포츠/레저
까치당구장,당구장,서울특별시 노원구 상계동 상계로,스트레스 해소; 감정 자극,37.662197,127.0747824,실내 스포츠/레저
세븐당구,당구장,서울특별시 양천구 신월동 곰달래로,스트레스 해소; 감정 자극,37.5302798,126.8326926,실내 스포츠/레저
유진헬스피아,헬스/휘트니스,서울특별시 양천구 신월동 곰달래로14길,스트레스 해소; 감정 자극,37.5287724,126.8383374,피트니스/운동시설
오지스크린골프,실내골프/스크린골프,서울특별시 노원구 월계동 초안산로5길,에너지 회복; 스트레스 해소,37.6322812,127.0495706,실내 스포츠/레저
24시포켓볼,당구장,서울특별시 양천구 신월동 월정로,스트레스 해소; 감정 자극,37.532924,126.8363283,실내 스포츠/레저
창원당구장,당구장,서울특별시 강북구 우이동 삼양로,스트레스 해소; 감정 자극,37.6622265,127.0130731,실내 스포츠/레저
패카2당구장,당구장,서울특별시 중구 필동3가 퇴계로44길,스트레스 해소; 감정 자극,37.561078,126.9969363,실내 스포츠/레저
오페라당구장,당구장,서울특별시 동작구 상도동 상도로,스트레스 해소; 감정 자극,37.5030223,126.9360156,실내 스포츠/레저
신협헬스크럽,헬스/휘트니스,서울특별시 동작구 상도동 상도로,스트레스 해소; 감정 자극,37.5030223,126.9360156,피트니스/운동시설
행운당구장,당구장,서울특별시 은평구 증산동 증산로9길,스트레스 해소; 감정 자극,37.5850258,126.9096068,실내 스포츠/레저
바울당구장,당구장,서울특별시 강동구 성내동 성내로,스트레스 해소; 감정 자극,37.5287555,127.1254049,실내 스포츠/레저
고인돌당구장,당구장,서울특별시 금천구 독산동 시흥대로,스트레스 해소; 감정 자극,37.4684383,126.8980548,실내 스포츠/레저
케이당구장,당구장,서울특별시 도봉구 방학동 도당로,스트레스 해소; 감정 자극,37.666259,127.0380315,실내 스포츠/레저
골프스쿨,실내골프/스크린골프,서울특별시 노원구 하계동 노원로,에너지 회복; 스트레스 해소,37.6390332,127.0747167,실내 스포츠/레저
규수당스포츠센터,헬스/휘트니스,서울특별시 마포구 서교동 양화로,스트레스 해소; 감정 자극,37.5511835,126.9159825,피트니스/운동시설
다우당구클럽,당구장,서울특별시 마포구 서교동 홍익로,스트레스 해소; 감정 자극,37.5535906,126.9233991,실내 스포츠/레저
미진당구장,당구장,서울특별시 동작구 상도1동 상도로,스트레스 해소; 감정 자극,37.4937444,126.9558541,실내 스포츠/레저
엘리트당구클럽,당구장,서울특별시 동작구 상도동 상도로,스트레스 해소; 감정 자극,37.5030223,126.9360156,실내 스포츠/레저
제이필드골프클럽,실내골프/스크린골프,서울특별시 영등포구 도림동 도림로,에너지 회복; 스트레스 해소,37.5080929,126.9000402,실내 스포츠/레저
프라임당구클럽,당구장,서울특별시 금천구 독산동 독산로,스트레스 해소; 감정 자극,37.4686271,126.9022919,실내 스포츠/레저
맥스짐,헬스/휘트니스,서울특별시 마포구 서교동 잔다리로,스트레스 해소; 감정 자극,37.5569376,126.9141526,피트니스/운동시설
범진복싱체육관,지역실내체육관,서울특별시 금천구 시흥동 은행나무로,에너지 회복; 스트레스 해소,37.4510014,126.9062624,피트니스/운동시설
국제당구장,당구장,서울특별시 금천구 시흥동 독산로,스트레스 해소; 감정 자극,37.4491111,126.9050265,실내 스포츠/레저
프라임탁구클럽,탁구장,서울특별시 마포구 성산동 월드컵로,에너지 회복; 스트레스 해소,37.565398,126.9014552,피트니스/운동시설
당구재미,당구장,서울특별시 금천구 시흥동 탑골로,스트레스 해소; 감정 자극,37.4518965,126.9136646,실내 스포츠/레저
초이스당구클럽,당구장,서울특별시 노원구 상계동 상계로,스트레스 해소; 감정 자극,37.662197,127.0747824,실내 스포츠/레저
씨엔엔당구,당구장,서울특별시 구로구 궁동 부일로15가길,스트레스 해소; 감정 자극,37.4939686,126.832787,실내 스포츠/레저
한콜당구장,당구장,서울특별시 금천구 시흥동 시흥대로,스트레스 해소; 감정 자극,37.4479738,126.9033279,실내 스포츠/레저
연화헬스,헬스/휘트니스,서울특별시 양천구 신월동 곰달래로5길,스트레스 해소; 감정 자극,37.5333697,126.8318545,피트니스/운동시설
트윈빌당구장,당구장,서울특별시 양천구 목동 목동동로,스트레스 해소; 감정 자극,37.5352107,126.8793143,실내 스포츠/레저
황금당구장,당구장,서울특별시 노원구 상계동 상계로,스트레스 해소; 감정 자극,37.662197,127.0747824,실내 스포츠/레저
건호당구장,당구장,서울특별시 노원구 상계동 한글비석로,스트레스 해소; 감정 자극,37.6604332,127.0719118,실내 스포츠/레저
빅토리헬스클럽,헬스/휘트니스,서울특별시 노원구 상계동 한글비석로,스트레스 해소; 감정 자극,37.6604332,127.0719118,피트니스/운동시설
라이온당구장,당구장,서울특별시 노원구 월계동 월계로,스트레스 해소; 감정 자극,37.6283901,127.0562051,실내 스포츠/레저
대물실내낚시터,실내낚시터,서울특별시 구로구 가리봉동 구로동로,안정감; 감정 정화,37.4828085,126.8864791,실내 스포츠/레저
챔프2당구장,당구장,서울특별시 영등포구 영등포동5가 영중로20길,스트레스 해소; 감정 자극,37.5212657,126.9069817,실내 스포츠/레저
동원당구클럽,당구장,서울특별시 금천구 시흥동 금하로24길,스트레스 해소; 감정 자극,37.4486647,126.9085421,실내 스포츠/레저
IT휘트니스,헬스/휘트니스,서울특별시 금천구 가산동 가산디지털2로,스트레스 해소; 감정 자극,37.4820799,126.8781353,피트니스/운동시설
라비앙휘트니스,헬스/휘트니스,서울특별시 노원구 중계동 중계로,스트레스 해소; 감정 자극,37.6462131,127.0816428,피트니스/운동시설
매직핸드포켓클럽,당구장,서울특별시 서대문구 대현동 이화여대1안길,스트레스 해소; 감정 자극,37.5576266,126.9440733,실내 스포츠/레저
날마다당구장,당구장,서울특별시 강서구 화곡동 화곡로,스트레스 해소; 감정 자극,37.5414074,126.8415864,실내 스포츠/레저
사이버당구장,당구장,서울특별시 강서구 화곡동 화곡로,스트레스 해소; 감정 자극,37.5414074,126.8415864,실내 스포츠/레저
이슈당구클럽,당구장,서울특별시 강서구 화곡동 화곡로,스트레스 해소; 감정 자극,37.5414074,126.8415864,실내 스포츠/레저
코베휘트니스,헬스/휘트니스,서울특별시 성동구 행당동 왕십리로21길,스트레스 해소; 감정 자극,37.5598419,127.0317946,피트니스/운동시설
승일당구클럽,당구장,서울특별시 성동구 도선동 무학로2길,스트레스 해소; 감정 자극,37.5632681,127.0337527,실내 스포츠/레저
헬포츠헬스,헬스/휘트니스,서울특별시 동작구 상도동 상도로,스트레스 해소; 감정 자극,37.5030223,126.9360156,피트니스/운동시설
씨제이당구클럽,당구장,서울특별시 강동구 천호동 구천면로,스트레스 해소; 감정 자극,37.5469479,127.1339475,실내 스포츠/레저
시대당구장,당구장,서울특별시 중구 서소문동 세종대로11길,스트레스 해소; 감정 자극,37.5620898,126.9739215,실내 스포츠/레저
공구당구장,당구장,서울특별시 구로구 고척동 경인로43길,스트레스 해소; 감정 자극,37.4988796,126.8600066,실내 스포츠/레저
돼지당구장,당구장,서울특별시 강동구 천호동 올림픽로,스트레스 해소; 감정 자극,37.5440698,127.1253545,실내 스포츠/레저
노니헬스,헬스/휘트니스,서울특별시 도봉구 창동 노해로,스트레스 해소; 감정 자극,37.6511814,127.0371671,피트니스/운동시설
청호당구클럽,당구장,서울특별시 강서구 등촌동 공항대로,스트레스 해소; 감정 자극,37.5531018,126.8600764,실내 스포츠/레저
라인당구장,당구장,서울특별시 종로구 효제동 대학로3길,스트레스 해소; 감정 자극,37.5741631,127.0012783,실내 스포츠/레저
동문당구클럽,당구장,서울특별시 영등포구 대림동 도신로4길,스트레스 해소; 감정 자극,37.502415,126.8959218,실내 스포츠/레저
조이헬스클럽,헬스/휘트니스,서울특별시 영등포구 대림동 대림로,스트레스 해소; 감정 자극,37.5019187,126.8968464,피트니스/운동시설
플러스휘트니스클럽,헬스/휘트니스,서울특별시 성북구 종암동 종암로,스트레스 해소; 감정 자극,37.599462,127.0342569,피트니스/운동시설
썬스크린골프존,실내골프/스크린골프,서울특별시 도봉구 창동 덕릉로,에너지 회복; 스트레스 해소,37.6454458,127.0491428,실내 스포츠/레저
준당구클럽,당구장,서울특별시 도봉구 창동 덕릉로,스트레스 해소; 감정 자극,37.6454458,127.0491428,실내 스포츠/레저
공공칠당구클럽,당구장,서울특별시 도봉구 창동 덕릉로,스트레스 해소; 감정 자극,37.6454458,127.0491428,실내 스포츠/레저
시티당구장,당구장,서울특별시 도봉구 창동 덕릉로,스트레스 해소; 감정 자극,37.6454458,127.0491428,실내 스포츠/레저
이삼사당구장,당구장,서울특별시 종로구 관철동 우정국로2길,스트레스 해소; 감정 자극,37.5695618,126.9843029,실내 스포츠/레저
푸르지오스크린골프,실내골프/스크린골프,서울특별시 영등포구 영등포동8가 영중로,에너지 회복; 스트레스 해소,37.5281889,126.904769,실내 스포츠/레저
코엑스스크린골프,실내골프/스크린골프,서울특별시 강남구 삼성동 테헤란로87길,에너지 회복; 스트레스 해소,37.5086166,127.0589795,실내 스포츠/레저
한스남여헬스타운,헬스/휘트니스,서울특별시 성북구 장위동 장위로,스트레스 해소; 감정 자극,37.6141289,127.0520799,피트니스/운동시설
필,당구장,서울특별시 강남구 논현동 강남대로132길,스트레스 해소; 감정 자극,37.5126947,127.0236273,실내 스포츠/레저
정우당구장,당구장,서울특별시 성북구 종암동 종암로,스트레스 해소; 감정 자극,37.599462,127.0342569,실내 스포츠/레저
코리아당구클럽,당구장,서울특별시 강서구 방화동 금낭화로,스트레스 해소; 감정 자극,37.5799066,126.8109245,실내 스포츠/레저
프리남여헬스,헬스/휘트니스,서울특별시 성북구 동선동1가 동소문로,스트레스 해소; 감정 자극,37.5935458,127.017058,피트니스/운동시설
엠에스당구장,당구장,서울특별시 성북구 동선동1가 동소문로24길,스트레스 해소; 감정 자극,37.593069,127.0188525,실내 스포츠/레저
클럽마니아,당구장,서울특별시 강서구 내발산동 강서로,스트레스 해소; 감정 자극,37.5507788,126.8363291,실내 스포츠/레저
빅토리당구장,당구장,서울특별시 강북구 미아동 도봉로,스트레스 해소; 감정 자극,37.6308331,127.024486,실내 스포츠/레저
스포츠포켓볼,당구장,서울특별시 마포구 망원동 망원로,스트레스 해소; 감정 자극,37.5555526,126.8969844,실내 스포츠/레저
땡구르당구장,당구장,서울특별시 서대문구 남가좌동 거북골로,스트레스 해소; 감정 자극,37.5769296,126.9216449,실내 스포츠/레저
마이큐당구장,당구장,서울특별시 강남구 청담동 도산대로,스트레스 해소; 감정 자극,37.5244899,127.0502131,실내 스포츠/레저
콩고피트니스,헬스/휘트니스,서울특별시 강남구 논현동 학동로,스트레스 해소; 감정 자극,37.5120112,127.0241112,피트니스/운동시설
에이당구클럽,당구장,서울특별시 마포구 신수동 토정로,스트레스 해소; 감정 자극,37.5450319,126.933469,실내 스포츠/레저
논현힐스크린골프,실내골프/스크린골프,서울특별시 강남구 논현동 논현로131길,에너지 회복; 스트레스 해소,37.5143628,127.0293262,실내 스포츠/레저
백두산당구클럽,당구장,서울특별시 강북구 수유동 삼양로,스트레스 해소; 감정 자극,37.6353867,127.0170277,실내 스포츠/레저
퓨휘트니스,헬스/휘트니스,서울특별시 강남구 역삼동 언주로,스트레스 해소; 감정 자극,37.4963919,127.0458068,피트니스/운동시설
다성당구장,당구장,서울특별시 강북구 수유동 삼양로,스트레스 해소; 감정 자극,37.6353867,127.0170277,실내 스포츠/레저
왕실당구장,당구장,서울특별시 양천구 신월동 곰달래로,스트레스 해소; 감정 자극,37.5296216,126.8345454,실내 스포츠/레저
고릴라멀티짐,헬스/휘트니스,서울특별시 동대문구 장안동 답십리로72길,스트레스 해소; 감정 자극,37.5687352,127.0728784,피트니스/운동시설
원당구클럽,당구장,서울특별시 동작구 신대방동 보라매로,스트레스 해소; 감정 자극,37.4956148,126.9275507,실내 스포츠/레저
신재국탁구클럽,탁구장,서울특별시 관악구 봉천동 관악로,에너지 회복; 스트레스 해소,37.4812588,126.9527443,피트니스/운동시설
프라임골프클럽,실내골프/스크린골프,서울특별시 양천구 신월동 남부순환로,에너지 회복; 스트레스 해소,37.5327968,126.8304943,실내 스포츠/레저
힐탑이십사,당구장,서울특별시 강남구 논현동 논현로,스트레스 해소; 감정 자극,37.5181326,127.0287585,실내 스포츠/레저
예스,당구장,서울특별시 서초구 서초동 사임당로,스트레스 해소; 감정 자극,37.489154,127.0172282,실내 스포츠/레저
레드콩고휘트니스,헬스/휘트니스,서울특별시 동작구 노량진동 노량진로,스트레스 해소; 감정 자극,37.5138502,126.9445794,피트니스/운동시설
학사당구장,당구장,서울특별시 성북구 종암동 종암로21길,스트레스 해소; 감정 자극,37.6018951,127.031225,실내 스포츠/레저
에버헬스,헬스/휘트니스,서울특별시 강북구 미아동 도봉로,스트레스 해소; 감정 자극,37.6227994,127.0275119,피트니스/운동시설
명화당구장,당구장,서울특별시 영등포구 영등포동2가 버드나루로,스트레스 해소; 감정 자극,37.5183756,126.9123613,실내 스포츠/레저
아이큐당구장,당구장,서울특별시 강서구 화곡동 화곡로,스트레스 해소; 감정 자극,37.5421164,126.8424938,실내 스포츠/레저
현대스크린골프연습장,실내골프/스크린골프,서울특별시 중랑구 면목동 용마산로,에너지 회복; 스트레스 해소,37.5815926,127.0939102,실내 스포츠/레저
금호실내골프연습장,실내골프/스크린골프,서울특별시 중랑구 면목동 용마산로,에너지 회복; 스트레스 해소,37.5815926,127.0939102,실내 스포츠/레저
돈당구클럽,당구장,서울특별시 중랑구 망우동 용마산로115길,스트레스 해소; 감정 자극,37.5985991,127.0977219,실내 스포츠/레저
미스터큐당구장,당구장,서울특별시 중랑구 면목동 사가정로,스트레스 해소; 감정 자극,37.5810816,127.0843842,실내 스포츠/레저
챠밍여성헬스,헬스/휘트니스,서울특별시 성북구 동소문동2가 동소문로,스트레스 해소; 감정 자극,37.5891041,127.0077655,피트니스/운동시설
동강실내낚시터,실내낚시터,서울특별시 중랑구 면목동 면목로,안정감; 감정 정화,37.5816841,127.0886238,실내 스포츠/레저
청무체육관,지역체육센터,서울특별시 광진구 군자동 광나루로,에너지 회복; 스트레스 해소,37.5480431,127.0707996,피트니스/운동시설
우리들당구장,당구장,서울특별시 중랑구 면목동 면목로,스트레스 해소; 감정 자극,37.5816841,127.0886238,실내 스포츠/레저
썬휘트니스,헬스/휘트니스,서울특별시 광진구 자양동 뚝섬로,스트레스 해소; 감정 자극,37.5352838,127.0684803,피트니스/운동시설
건국당구장,당구장,서울특별시 광진구 자양동 아차산로,스트레스 해소; 감정 자극,37.5388422,127.0738801,실내 스포츠/레저
신나는락볼링,볼링장,서울특별시 도봉구 방학동 도당로,스트레스 해소; 감정 자극,37.666259,127.0380315,실내 스포츠/레저
쵸이스당구장,당구장,서울특별시 관악구 봉천동 관악로,스트레스 해소; 감정 자극,37.4812588,126.9527443,실내 스포츠/레저
센터원웰니스,헬스/휘트니스,서울특별시 중구 수하동 을지로5길,스트레스 해소; 감정 자극,37.5668867,126.9844833,피트니스/운동시설
토마토GYM,헬스/휘트니스,서울특별시 구로구 구로동 경인로,스트레스 해소; 감정 자극,37.5003017,126.8758793,피트니스/운동시설
재미짐휘트니스,헬스/휘트니스,서울특별시 강남구 신사동 도산대로11길,스트레스 해소; 감정 자극,37.5197958,127.0223498,피트니스/운동시설
송파아우름체육센터,게이트볼장,서울특별시 송파구 거여동 ,안정감; 사회적 연결,37.490687,127.146916,실외 스포츠/레저
월드컵공원난지천공원축구장,지역축구장,서울특별시 마포구 상암동 월드컵로,에너지 회복; 스트레스 해소,37.5752789,126.8845386,경기장/관람시설
SP당구클럽,당구장,서울특별시 송파구 석촌동 가락로,스트레스 해소; 감정 자극,37.5005742,127.1070344,실내 스포츠/레저
매헌시민의숲양재천야외수영장,일반수영장,서울특별시 서초구 양재동 ,에너지 회복; 안정감,37.4690298,127.0387937,수영/수상스포츠
매헌시민의숲양재실내테니스장,지역실내체육관,서울특별시 서초구 양재동 매헌로,에너지 회복; 스트레스 해소,37.4685166,127.0363487,피트니스/운동시설
잠실실내스키장,기타레포츠,서울특별시 송파구 송파동 오금로,스트레스 해소; 감정 자극,37.5089417,127.1146343,실외 스포츠/레저
킹콩헬스장,헬스/휘트니스,서울특별시 강동구 길동 양재대로116길,스트레스 해소; 감정 자극,37.5380844,127.1431788,피트니스/운동시설
이스카이골프존,실내골프/스크린골프,서울특별시 강서구 공항동 공항대로,에너지 회복; 스트레스 해소,37.5596503,126.8264711,실내 스포츠/레저
유휘트니스,헬스/휘트니스,서울특별시 강남구 압구정동 압구정로,스트레스 해소; 감정 자극,37.52735,127.0288606,피트니스/운동시설
랜드골프존스크린,실내골프/스크린골프,서울특별시 용산구 원효로3가 청파로,에너지 회복; 스트레스 해소,37.5310865,126.953118,실내 스포츠/레저
스타골프존,실내골프/스크린골프,서울특별시 관악구 봉천동 남부순환로,에너지 회복; 스트레스 해소,37.482356,126.9492131,실내 스포츠/레저
한림스크린골프존,실내골프/스크린골프,서울특별시 영등포구 영등포동2가 국회대로54길,에너지 회복; 스트레스 해소,37.5220798,126.9101365,실내 스포츠/레저
골프존25,실내골프/스크린골프,서울특별시 서초구 서초동 서초대로,에너지 회복; 스트레스 해소,37.4941925,127.0156185,실내 스포츠/레저
골프존드라이빙레인지,실내골프/스크린골프,서울특별시 마포구 공덕동 마포대로,에너지 회복; 스트레스 해소,37.5450525,126.951996,실내 스포츠/레저
강서탑골프존,실내골프/스크린골프,서울특별시 강서구 염창동 공항대로71길,에너지 회복; 스트레스 해소,37.5482585,126.8723137,실내 스포츠/레저
효창스크린골프,실내골프/스크린골프,서울특별시 용산구 청파동3가 효창원로,에너지 회복; 스트레스 해소,37.5425527,126.9621542,실내 스포츠/레저
발할라스크린골프,실내골프/스크린골프,서울특별시 동작구 흑석동 현충로,에너지 회복; 스트레스 해소,37.5056504,126.9712744,실내 스포츠/레저
퀸메르디앙스크린골프,실내골프/스크린골프,서울특별시 영등포구 양평동3가 양산로,에너지 회복; 스트레스 해소,37.5258921,126.8897241,실내 스포츠/레저
꿈의숲스크린골프,실내골프/스크린골프,서울특별시 성북구 석관동 화랑로,에너지 회복; 스트레스 해소,37.6082012,127.0521212,실내 스포츠/레저
노블스크린골프,실내골프/스크린골프,서울특별시 동대문구 신설동 천호대로,에너지 회복; 스트레스 해소,37.5728697,127.0273972,실내 스포츠/레저
신당스크린골프,실내골프/스크린골프,서울특별시 중구 신당동 다산로40길,에너지 회복; 스트레스 해소,37.563682,127.0177278,실내 스포츠/레저
홍대스크린골프,실내골프/스크린골프,서울특별시 마포구 동교동 양화로,에너지 회복; 스트레스 해소,37.5583347,126.9255789,실내 스포츠/레저
동아스크린골프,실내골프/스크린골프,서울특별시 강동구 천호동 구천면로,에너지 회복; 스트레스 해소,37.54128,127.1213912,실내 스포츠/레저
구상스크린골프,실내골프/스크린골프,서울특별시 강남구 대치동 영동대로,에너지 회복; 스트레스 해소,37.5007921,127.0674242,실내 스포츠/레저
랜드스크린골프,실내골프/스크린골프,서울특별시 강남구 논현동 학동로,에너지 회복; 스트레스 해소,37.5125721,127.0263956,실내 스포츠/레저
꿈강스크린골프,실내골프/스크린골프,서울특별시 강남구 청담동 도산대로,에너지 회복; 스트레스 해소,37.5244899,127.0502131,실내 스포츠/레저
유존스크린골프,실내골프/스크린골프,서울특별시 강남구 역삼동 논현로86길,에너지 회복; 스트레스 해소,37.4996847,127.0385641,실내 스포츠/레저
나인스크린골프,실내골프/스크린골프,서울특별시 송파구 잠실동 석촌호수로,에너지 회복; 스트레스 해소,37.5139175,127.0849709,실내 스포츠/레저
뉴캐슬스크린골프,실내골프/스크린골프,서울특별시 중구 황학동 청계천로,에너지 회복; 스트레스 해소,37.5716812,127.0211718,실내 스포츠/레저
블루스크린골프,실내골프/스크린골프,서울특별시 중구 무교동 무교로,에너지 회복; 스트레스 해소,37.5675337,126.9792257,실내 스포츠/레저
원일스크린골프,실내골프/스크린골프,서울특별시 강동구 둔촌동 양재대로,에너지 회복; 스트레스 해소,37.5312359,127.138644,실내 스포츠/레저
스팍스크린골프,실내골프/스크린골프,서울특별시 강남구 수서동 광평로51길,에너지 회복; 스트레스 해소,37.4901459,127.1014286,실내 스포츠/레저
명동힐스크린골프,실내골프/스크린골프,서울특별시 중구 명동2가 명동4길,에너지 회복; 스트레스 해소,37.5626116,126.9840352,실내 스포츠/레저
재림스크린골프,실내골프/스크린골프,서울특별시 종로구 인의동 창경궁로,에너지 회복; 스트레스 해소,37.5761711,126.9972919,실내 스포츠/레저
팰리스스크린골프,실내골프/스크린골프,서울특별시 중구 정동 정동길,에너지 회복; 스트레스 해소,37.5665663,126.9709728,실내 스포츠/레저
홀인원스크린골프,실내골프/스크린골프,서울특별시 강남구 도곡동 논현로,에너지 회복; 스트레스 해소,37.4891276,127.0414746,실내 스포츠/레저
W스크린골프,실내골프/스크린골프,서울특별시 노원구 월계동 마들로,에너지 회복; 스트레스 해소,37.6369255,127.0581181,실내 스포츠/레저
뮤즈스크린골프,실내골프/스크린골프,서울특별시 송파구 석촌동 송파대로45길,에너지 회복; 스트레스 해소,37.5069995,127.1049407,실내 스포츠/레저
매직스크린골프,실내골프/스크린골프,서울특별시 마포구 공덕동 마포대로,에너지 회복; 스트레스 해소,37.5450525,126.951996,실내 스포츠/레저
묵동다목적체육관,지역실내체육관,서울특별시 중랑구 묵동 ,에너지 회복; 스트레스 해소,37.6127705,127.07852,피트니스/운동시설
육사체육관,스포츠센터,서울특별시 노원구 공릉동 ,에너지 회복; 스트레스 해소,37.6302151,127.0872902,피트니스/운동시설
충암볼링장,볼링장,서울특별시 서대문구 남가좌동 명지대길,스트레스 해소; 감정 자극,37.5803014,126.9250688,실내 스포츠/레저
킴즈볼링센터,볼링장,서울특별시 종로구 원남동 창경궁로,스트레스 해소; 감정 자극,37.5761711,126.9972919,실내 스포츠/레저
창동JJ볼링센타,볼링장,서울특별시 도봉구 창동 해등로,스트레스 해소; 감정 자극,37.64872,127.04295,실내 스포츠/레저
24시볼링장,볼링장,서울특별시 강남구 논현동 논현로,스트레스 해소; 감정 자극,37.5140379,127.0306696,실내 스포츠/레저
대성볼링센터,볼링장,서울특별시 광진구 중곡동 용마산로,스트레스 해소; 감정 자극,37.5633231,127.0869713,실내 스포츠/레저
로얄볼링센터,볼링장,서울특별시 영등포구 당산동1가 영등포로28길,스트레스 해소; 감정 자극,37.5198044,126.8986546,실내 스포츠/레저
정석골프연습장,실외골프연습장,서울특별시 강남구 삼성동 봉은사로,에너지 회복; 스트레스 해소,37.5135682,127.05643,실외 스포츠/레저
한남실내골프연습장,실외골프연습장,서울특별시 용산구 한남동 독서당로,에너지 회복; 스트레스 해소,37.5311428,127.0077013,실외 스포츠/레저
최인자골프연습장,실외골프연습장,서울특별시 서초구 서초동 서초대로,에너지 회복; 스트레스 해소,37.4941925,127.0156185,실외 스포츠/레저
한남골프연습장,실외골프연습장,서울특별시 영등포구 대림동 대림로,에너지 회복; 스트레스 해소,37.50165,126.89696,실외 스포츠/레저
원일골프연습장,실외골프연습장,서울특별시 강남구 대치동 도곡로,에너지 회복; 스트레스 해소,37.5001811,127.0648705,실외 스포츠/레저
대림프라자골프연습장,실외골프연습장,서울특별시 동작구 사당동 사당로17길,에너지 회복; 스트레스 해소,37.4849392,126.9734668,실외 스포츠/레저
크로스핏페인스톰,헬스/휘트니스,서울특별시 강남구 신사동 논현로176길,스트레스 해소; 감정 자극,37.5272642,127.0299548,피트니스/운동시설
성일문화체육센터,지역체육센터,서울특별시 강동구 성내동 성내로15길,에너지 회복; 스트레스 해소,37.5279455,127.1284946,피트니스/운동시설
마린스포츠센터,헬스/휘트니스,서울특별시 노원구 하계동 한글비석로,스트레스 해소; 감정 자극,37.6378798,127.0716273,피트니스/운동시설
역발산스포츠센터,헬스/휘트니스,서울특별시 광진구 화양동 능동로13길,스트레스 해소; 감정 자극,37.54449,127.0694089,피트니스/운동시설
월드스포츠센터,헬스/휘트니스,서울특별시 송파구 마천동 마천로,스트레스 해소; 감정 자극,37.5005598,127.1434527,피트니스/운동시설
래미안스포츠센터,헬스/휘트니스,서울특별시 성북구 길음동 길음로,스트레스 해소; 감정 자극,37.6119258,127.0177731,피트니스/운동시설
일이삼스포츠센터,헬스/휘트니스,서울특별시 구로구 고척동 경인로,스트레스 해소; 감정 자극,37.4973462,126.8640144,피트니스/운동시설
아동스포츠센터,헬스/휘트니스,서울특별시 서대문구 연희동 성산로17길,스트레스 해소; 감정 자극,37.5636536,126.9310434,피트니스/운동시설
GMC스포츠센터,헬스/휘트니스,서울특별시 성북구 길음동 삼양로,스트레스 해소; 감정 자극,37.6097987,127.0220277,피트니스/운동시설
리첸스포츠센터,헬스/휘트니스,서울특별시 영등포구 여의도동 여의동로,스트레스 해소; 감정 자극,37.5275704,126.9316012,피트니스/운동시설
애시앙스포츠센터,헬스/휘트니스,서울특별시 양천구 목동 목동동로,스트레스 해소; 감정 자극,37.5352107,126.8793143,피트니스/운동시설
성북생활체육공설운동장,공설/시민운동장,서울특별시 성북구 하월곡동 화랑로13길,에너지 회복; 스트레스 해소,37.6049919,127.0417441,경기장/관람시설
잠실스케이트장,스케이트장,서울특별시 송파구 잠실동 한가람로,에너지 회복; 스트레스 해소,37.5162538,127.084166,겨울스포츠
독산동잔디축구장,지역축구장,서울특별시 금천구 독산동 범안로,에너지 회복; 스트레스 해소,37.4671493,126.8986621,경기장/관람시설
월곡인조잔디축구장,지역축구장,서울특별시 성북구 하월곡동 화랑로13길,에너지 회복; 스트레스 해소,37.6049919,127.0417441,경기장/관람시설
삼정수영장,일반수영장,서울특별시 은평구 대조동 서오릉로,에너지 회복; 안정감,37.6103592,126.9203192,수영/수상스포츠
세이브존스포츠센터수영장,일반수영장,서울특별시 노원구 하계동 한글비석로,에너지 회복; 안정감,37.6378798,127.0716273,수영/수상스포츠
모아방골프클리닉,실내골프/스크린골프,서울특별시 성북구 정릉동 정릉로,에너지 회복; 스트레스 해소,37.6115357,126.9920998,실내 스포츠/레저
신라호텔수영장,일반수영장,서울특별시 중구 장충동2가 동호로,에너지 회복; 안정감,37.5590508,127.0055569,수영/수상스포츠
금성볼링센타,볼링장,서울특별시 서초구 서초동 서초중앙로,스트레스 해소; 감정 자극,37.4875105,127.0148124,실내 스포츠/레저
